,DENOMINAZIONE,ID,INDIRIZZO,COMUNE,PROVINCIA,COMUNITA DI VALLE,NAZIONE,SITO INTERNET,LATITUDINE,LONGITUDINE,ALTITUDINE,CATEGORIA 1,CATEGORIA 2,CODICE ACCESSIBILITA' 1,CODICE ACCESSIBILITA' 2,CODICE ACCESSIBILITA' 3,CODICE ACCESSIBILITA' 4,CODICE ACCESSIBILITA' 5,CODICE ACCESSIBILITA' 6,CODICE ACCESSIBILITA' 7,CODICE ACCESSIBILITA' 8,CODICE ACCESSIBILITA' 9,CODICE ACCESSIBILITA' 10,CODICE ACCESSIBILITA' 11,CODICE ACCESSIBILITA' 12,CODICE ACCESSIBILITA' 13,CODICE ACCESSIBILITA' 14,CODICE ACCESSIBILITA' 15,CODICE ACCESSIBILITA' 16,CODICE ACCESSIBILITA' 17,CODICE ACCESSIBILITA' 18,DATA ULTIMA MODIFICA,DATA RILEVAZIONE
0, BAR CHICCO D'ORO,535,"CORSO BUONARROTI ,12/2",Trento,TN,Territorio Val D'adige,Italia,,46.0760928,11.1194082,200.0,Bar,,AI-6d,AE-3cf,AE-3abde,AI-6p,AI-6i,AI-6fg,AI-6bc,AI-6ad,AE-1abc,AE-2d,AI-6r,,,,,,,,2013-01-14 11:53:09.741,2010-07-20
1,IL PAPIRO LIBRI & CAFFE',27,"VIA GALILEI, 5",Trento,TN,Territorio Val D'adige,Italia,,46.06786,11.12563,241.0,Bar,Librerie,AI-6d,AE-3cf,AE-3abde,AI-6i,AI-6fg,AE-1abc,AE-2d,,,,,,,,,,,,2013-06-06 16:13:46.535,2013-01-14
2,A posto - La tua auto come nuova,378,"Via Tommaso Gar, 27/2",Trento,TN,Territorio Val D'adige,Italia,www.aposto.it,46.0676211,11.1172199,200.0,Riparazione Autovetture,,AE-3cf,,,,,,,,,,,,,,,,,,2010-12-22 10:12:53,2010-08-09
3,A.C.I.S.J.F. Associazione Casa Tridentina della Giovane,381,"Via prepositura, 58",Trento,TN,Territorio Val D'adige,Italia,www.acisjftrento.it,46.069067,11.1185694,200.0,Associazioni,,AI-6d,AI-5fb,AI-5fa,AI-5f,AE-3cf,AE-3abde,AI-6fg,AI-6p,AI-6r,AE-2d,,,,,,,,,2013-01-21 15:47:55.106,2013-01-21
4,A.D.M.O. Associazione Donatori Midollo Osseo,289,"Via Sighele, 7",Trento,TN,Territorio Val D'adige,Italia,www.admotrentino.it,46.060698,11.1236871,180.0,Associazioni,,AI-6d,AE-3cf,AE-3abde,AI-6fg,AE-1abc,AE-2c,,,,,,,,,,,,,2018-01-05 16:21:07.407,2010-05-21
5,A.E.T. ASSOCIAZIONE EMOFILICI TRENTINI,522,"VIA VITTORIO VENETO, 24",Trento,TN,Territorio Val D'adige,Italia,www.associazioneemofilicitrentini.com,46.0579773,11.120349,200.0,Associazioni,,AI-6d,AE-3cf,AE-3abde,AI-6i,AI-6fg,AI-6bc,AE-2gb,AE-2ga,AE-2g,AE-2a,AE-1abc,AI-6p,AI-6ad,AI-6r,,,,,2017-11-17 09:51:39.513,2010-07-16
6,"A.I.D.O. Associazione Italiana per la Donazione di Organi, Tessuti e Cellule",290,"VIA SIGHELE, 7",Trento,TN,Territorio Val D'adige,Italia,www.aido.it/trento,46.060369,11.123736,180.0,Associazioni,,AI-5fb,AI-5fa,AI-5f,AE-3cf,AE-3abde,AE-2b,AI-5c,AE-1abc,AE-2a,,,,,,,,,,2019-06-25 11:30:39.686,2010-05-21
7,A.I.S.L.A onlus - Associazione Italiana Sclerosi Laterale Amiotrofica,621,"VIA FERMI, 23/D",Trento,TN,Territorio Val D'adige,Italia,www.asilatrentinoaltoadige.it,46.048666,11.1290636,200.0,Associazioni,,AE-3cf,AE-1abc,AE-3abde,,,,,,,,,,,,,,,,2018-01-11 16:39:05.872,2010-08-09
8,A.I.S.L.A. ASSOCIAZIONE ITALIANA SCLEROSI LATERALE AMIOTROFICA,1495,"VIA BRONZETTI, 29",Trento,TN,Territorio Val D'adige,Italia,,46.058677,11.121518,200.0,Associazioni,,AE-3abde,AI-5fb,AI-6fg,AI-5fa,AI-6r,AE-1abc,AE-2d,AE-2b,AI-6i,AI-5f,AE-2a,AI-6l,AI-6e,AE-3cf,AI-6p,AI-6d,,,2019-06-24 10:31:42.99,2019-06-10
9,A.L.I.R. Associazione per la Lotta Insufficienza Respiratoria,288,"Via al Torrione, 6",Trento,TN,Territorio Val D'adige,Italia,www.alirtrentino.it,46.065148,11.122281,180.0,Associazioni,,AI-5fb,AI-5fa,AI-5f,AE-3cf,AE-3abde,AE-1abc,AE-2d,AI-6fg,AI-6r,AI-6bc,AE-2b,AI-6i,AI-6l,AI-6e,AI-6p,AI-6d,AI-6ad,AE-2a,2019-06-05 10:56:20.437,2010-05-24
10,A.L.P.I.  COOPERATIVA AVVIAMENTO AL LAVORO SU PROGETTI INDIVIDUALIZZATI,780,"VIA RAGAZZI DEL 99, 13",Trento,TN,Territorio Val D'adige,Italia,www.coop-alpi.it,46.0730641,11.1222183,200.0,Cooperative e Laboratori Sociali,,AI-6d,AE-3abde,AI-6o,AI-6l,AI-6i,AI-6fg,AI-6e,AE-3cf,AE-2a,,,,,,,,,,2018-01-18 14:34:20.877,2010-07-26
11,A.M.A. Auto Mutuo Aiuto ,282,"Via Torre d'Augusto, 2/1",Trento,TN,Territorio Val D'adige,Italia,www.automutuoaiuto.it,46.0731224,11.1251985,180.0,Associazioni,,AI-6d,AI-5b,AE-3cf,AE-3abde,AI-6fg,AE-1abc,AE-2c,,,,,,,,,,,,2010-06-09 12:26:46,2010-05-24
12,A.N.F.F.A.S. Associazione Nazionale di Famiglie di Persone con Disabilità Intellettiva e Relazionale,302,"Via Trener, 8",Trento,TN,Territorio Val D'adige,Italia,www.anffas.it,46.0956201,11.1193494,180.0,Associazioni,,AI-6d,AE-3cf,AE-3abde,AI-6fg,AI-6e,AE-1abc,AE-2c,,,,,,,,,,,,2010-06-15 14:33:42,2010-05-18
13,A.N.F.I. Associazione Nazionale Finanzieri d'Italia,298,"Largo Nazario Sauro, 11",Trento,TN,Territorio Val D'adige,Italia,,46.0747587,11.1248963,180.0,Associazioni,,AI-5fb,AI-5fa,AI-5f,AE-3cf,AE-3abde,AE-1abc,AE-2d,AE-2a,,,,,,,,,,,2010-06-08 12:14:48,2010-05-18
14,A.N.M.I.C. Associazione Nazionale Mutilati e Invalidi Civili,284,"Via Orazio Benevoli, 22",Trento,TN,Territorio Val D'adige,Italia,www.anmic-tn.org,46.054135,11.120441,180.0,Associazioni,,AI-6d,AE-3cf,AE-3abde,AI-6fg,AI-6e,AE-1abc,AE-2e,AE-2a,AE-2c,,,,,,,,,,2018-01-05 16:01:32.42,2010-05-17
15,A.N.M.I.L. Associazione Nazionale Mutilati e Invalidi del Lavoro ,285,"Via San Pio X, 38",Trento,TN,Territorio Val D'adige,Italia,www.anmil.it,46.0528137,11.1208529,180.0,Associazioni,,AE-3cf,AE-3abde,AI-6fg,AI-6e,AE-1abc,AE-2e,AE-2c,AE-2a,AI-6d,,,,,,,,,,2018-01-05 16:07:10.601,2010-05-25
16,A.P.A.P.I : AGENZIA PROVINCIALE PER L'ASSISTENZA E LA PREVIDENZA INTEGRATIVA - SPORTELLO INFORMATIVO,221,"PIAZZA SILVIO PELLICO, 8/3",Trento,TN,Territorio Val D'adige,Italia,www.apapi.provincia.tn.it,46.071759,11.123917,187.0,Uffici Pubblici,,AE-3cf,AE-3abde,AE-1abc,AE-2d,AE-2a,AE-2b,,,,,,,,,,,,,2013-02-04 16:01:24.662,2013-02-04
17,A.P.A.P.I: AGENZIA PROVINCIALE PER L'ASSISTENZA E LA PREVIDENZA INTEGRATIVA - DIREZIONE,222,"PIAZZA SILVIO PELLICO, 8",Trento,TN,Territorio Val D'adige,Italia,www.apapi.provincia.tn.it,46.071759,11.123917,187.0,Uffici Pubblici,,AI-5fb,AI-5fa,AI-5f,AE-3cf,AE-3abde,AE-1abc,AE-2c,AE-2a,,,,,,,,,,,2013-02-04 16:00:09.006,2013-02-04
18,A.P.C.A.T. Associazione Provinciale dei Club degli Alcolisti in Trattamento - Centro Studi,1509,"VIA SIGHELE, 3",Trento,TN,Territorio Val D'adige,Italia,www.apcattrentino-centrostudi.it,46.060178,11.123823,200.0,Associazioni,,AI-6r,AI-6fg,AI-6e,AI-6d,AE-3cf,AE-3abde,AE-2b,AE-2a,AE-1abc,,,,,,,,,,2020-06-29 16:57:06.791,2019-06-10
19,A.P.C.A.T. Associazione Provinciale dei Club degli Alcolisti in Trattamento Centro studi,291,"VIA SIGHELE, 7",Trento,TN,Territorio Val D'adige,Italia,www.apcattrentino-centrostudi.it,46.060178,11.123823,180.0,Associazioni,,AI-6d,AE-3cf,AE-3abde,AE-2b,AE-2a,AI-6e,AE-1abc,AI-6fg,,,,,,,,,,,2020-06-29 16:47:33.274,2010-05-17
20,A.R.C.A. ASSOCIAZIONE RICERCA COMPORTAMENTO ALIMENTARE,694,"VIA BRONZETTI, 29",Trento,TN,Territorio Val D'adige,Italia,www.arcatrento.wordpress.com,46.058677,11.121518,200.0,Associazioni,,AI-5fa,AI-5f,AE-3cf,AE-3abde,AI-6fg,AI-6e,AI-6p,AI-6l,AI-6i,AI-6d,AI-5fb,AE-2d,AE-2b,AE-1abc,AE-2a,AI-6r,,,2019-06-13 10:52:30.907,2010-07-16
21,A.R.I.S. Associazione Riabilitazione Inserimento Sociale Famiglie Malati Psichici,286,"Via al Torrione, 6",Trento,TN,Territorio Val D'adige,Italia,,46.065148,11.122281,180.0,Associazioni,,AI-5fb,AI-5fa,AI-5f,AE-3cf,AE-3abde,AE-1abc,AE-2d,AI-6r,AI-6p,AI-6l,AI-6i,AI-6fg,AI-6e,AI-6d,AI-6bc,AI-6ad,AE-2b,AE-2a,2019-06-05 14:43:45.621,2010-05-17
22,A.T.D. Associazione Trentina Diabetici ,297,"Via al Torrione, 6",Trento,TN,Territorio Val D'adige,Italia,,46.065148,11.122281,180.0,Associazioni,,AI-5fb,AI-5fa,AI-5f,AE-3cf,AE-3abde,AE-1abc,AE-2d,AI-6fg,AI-6r,AI-6bc,AE-2b,AI-6i,AI-6l,AI-6e,AI-6p,AI-6d,AI-6ad,AE-2a,2019-06-05 11:00:59.943,2010-05-14
23,A.T.M.A.R. Associazione Trentina Malati Reumatici Onlus,287,"Via al Torrione, 6",Trento,TN,Territorio Val D'adige,Italia,www.reumaticitrentino.it,46.065148,11.122281,180.0,Associazioni,,AI-5fb,AI-5fa,AI-5f,AE-3cf,AE-3abde,AE-1abc,AE-2d,AI-6fg,AI-6r,AI-6bc,AE-2b,AI-6i,AI-6l,AI-6e,AI-6p,AI-6d,AI-6ad,AE-2a,2019-06-05 14:24:00.272,2010-05-19
24,A.U.S.E.R. Associazione per Autogestione dei Servizi e la Solidarietà,337,"Via Vittorio Veneto, 24",Trento,TN,Territorio Val D'adige,Italia,www.auser.it,46.0579773,11.1203449,180.0,Associazioni,,AI-6d,AE-3cf,AE-3abde,AI-6fg,AE-1abc,AE-2ga,AE-2gb,AE-2g,AE-2c,,,,,,,,,,2018-01-11 17:10:59.507,2010-05-25
25,A.V.I.S. Associazione Volontari Italiani Sangue,331,"VIA SIGHELE, 7",Trento,TN,Territorio Val D'adige,Italia,www.avistrentino.org,46.060468,11.123765,180.0,Associazioni,,AE-3cf,AE-3abde,AI-5fb,AI-5fa,AI-5f,AI-5c,AE-2b,AE-2a,AE-1abc,,,,,,,,,,2019-06-25 11:34:00.832,2010-05-20
26,A.V.U.L.S.S. Associazione Volontariato Unità Locali servizi Socio Sanitari,336,"Via Endrici, 27",Trento,TN,Territorio Val D'adige,Italia,www.avulss.org,46.0634724,11.1216852,180.0,Associazioni,,AE-3cf,AE-3abde,AE-1abc,AE-2c,,,,,,,,,,,,,,,2010-06-16 13:39:01,2010-05-25
27,ACCADEMIA,807,"VICOLO COLICO, 4/6",Trento,TN,Territorio Val D'adige,Italia,www.accademiahotel.it,46.06872,11.120272,200.0,Alberghi / Hotel,Bed & Breakfast,AI-5fb,AI-5fa,AI-5f,AE-3cf,AE-3abde,AI-8efg,AE-1abc,AI-8m,AI-8n,AI-8a,AI-7a,AI-6fg,AI-7bcdef,AI-6r,AI-6bc,AI-8cd,AI-6p,AI-6d,2016-03-17 12:01:36.372,2013-01-21
28,ACLI SEDE PROVINCIALE,82,"VIA ROMA, 57",Trento,TN,Territorio Val D'adige,Italia,www.aclitrentine.it,46.06961,11.12075,257.0,Uffici Pubblici,,AI-6d,AI-5fb,AI-5fa,AI-5f,AE-3cf,AE-3abde,AI-6p,AI-6r,AI-6l,AI-6i,AI-6fg,AI-6e,AI-6bc,AI-6ad,AE-1abc,AE-2c,AE-2a,,2013-01-24 10:54:59.349,2013-01-23
29,ACLI SERVIZI TRENTINO SRL,424,"GALLERIA TIRRENA, 10",Trento,TN,Territorio Val D'adige,Italia,www.acliservizi.it,46.0684675,11.1216115,200.0,Uffici Pubblici,,AI-5fb,AI-5fa,AI-5f,AE-3cf,AE-3abde,AE-1abc,AE-2c,AE-2a,AI-6d,AI-6fg,AI-6r,AI-6i,AI-6l,AI-6e,AI-6p,,,,2017-11-27 12:00:51.005,2013-01-15
30,ACLI TRENTINE - CIRCOLO SAN GIUSEPPE SAN PIO X,699,"VIA VENETO, 24",Trento,TN,Territorio Val D'adige,Italia,,46.0579773,11.1203449,200.0,Associazioni,,AE-3cf,AE-3abde,AE-1abc,,,,,,,,,,,,,,,,2015-06-30 11:51:46.476,2010-07-16
31,ACUSTICA TRENTINA,339,"VIALE VERONA, 31/2",Trento,TN,Territorio Val D'adige,Italia,www.acustica.trentina.com,46.057174,11.1282428,180.0,Farmacie,,AE-3cf,AE-3abde,AE-2d,,,,,,,,,,,,,,,,2011-03-15 19:33:47,2010-05-17
32,ADGT - ASSOCIAZIONE DIABETE GIOVANILE DI TRENTO,525,"VIA BRONZETTI, 29",Trento,TN,Territorio Val D'adige,Italia,www.adgt.it,46.058677,11.121518,200.0,Associazioni,,AI-6d,AE-3cf,AE-3abde,AI-6p,AI-6fg,AI-6l,AI-6i,AI-6e,AE-1abc,AI-5fb,AI-5fa,AI-5f,AE-2d,AE-2b,AE-2a,AI-6r,,,2019-06-13 10:22:48.156,2010-07-16
33,AERHOTEL,813,"VIA LIDORNO, 3",Trento,TN,Territorio Val D'adige,Italia,,46.026922,11.1274653,200.0,Alberghi / Hotel,Ristoranti,AI-6d,AI-5fb,AI-5fa,AI-5f,AE-3cf,AE-3abde,AI-6i,AI-6fg,AI-6bc,AI-6ad,AI-8o,AI-7bcdef,AI-8a,AI-8efga,AI-8p,AI-8n,AI-8l,AI-7a,2013-02-28 15:40:47.338,2010-08-24
34,AFFARI FINANZIARI,744,"VIA ROMAGNOSI,"" 9 - C/O CENTRO EUROPA",Trento,TN,Territorio Val D'adige,Italia,wwww.provincia.tn.it,46.0732112,11.1218254,200.0,Uffici Pubblici,,AI-6d,AI-5fb,AI-5fa,AI-5f,AE-3cf,AE-3abde,AI-6o,AI-6l,AI-6i,AI-6fg,AI-6e,AI-6bc,AI-6ad,AE-2d,AE-2a,,,,2011-05-26 14:02:44,2010-07-23
35,AFTER PUB,707,"VIA SECONDO DA TRENTO, 1",Trento,TN,Territorio Val D'adige,Italia,,46.0765403,11.1230306,200.0,Pizzerie,Bar,AI-6d,AI-6l,AI-6i,AI-6fg,AI-6e,AE-1abc,AE-2d,AI-6p,AI-6r,AE-3abde,AE-3cf,,,,,,,,2016-02-09 09:28:28.784,2010-07-20
36,AGENZIA DEL LAVORO,680,"VIA GUARDINI, 75",Trento,TN,Territorio Val D'adige,Italia,www.agenzialavoro.tn.it,46.094576,11.1176606,200.0,Uffici Pubblici,,AI-5fb,AI-5fa,AI-5f,AE-3cf,AE-3abde,AE-1abc,AE-2a,,,,,,,,,,,,2011-05-23 13:51:09,2010-07-16
37,AGENZIA LIBRERIA SCALA MARIO,247,"VIA ROGGIA GRANDE, 26",Trento,TN,Territorio Val D'adige,Italia,www.libreriascala.it,46.0680187,11.1247987,190.0,Librerie,,AE-3cf,AE-3abde,AE-1abc,,,,,,,,,,,,,,,,2013-01-15 09:01:30.751,2013-01-14
38,AGENZIA VIAGGI CALDERARI E MOGGIOLI S.R.L.,185,"CORSO TRE NOVEMBRE, 96",Trento,TN,Territorio Val D'adige,Italia,,46.06074,11.1247,194.0,Agenzie viaggi e Promozione Turistica,,AE-3cf,AE-3abde,AE-1abc,,,,,,,,,,,,,,,,2010-03-05 07:03:18,2010-02-09
39,AGRITUR LE GIARE,805,"VIA FERSINA, 30",Trento,TN,Territorio Val D'adige,Italia,www.agriturlegiare.it,46.0435158,11.1232595,200.0,Garni e Agriturismo,,AE-3cf,AE-3abde,AI-8i,AI-8p,AI-8n,AI-8efg,AI-8cd,AI-8a,AI-7bcdef,AI-7a,AE-2a,,,,,,,,2016-03-17 11:21:31.232,2010-09-03
40,AI VICOLI,573,"PIAZZA SANTA TERESA VERZIERI, 1",Trento,TN,Territorio Val D'adige,Italia,www.aivicoli.it,46.06751,11.120286,200.0,Ristoranti,Bar,AI-6d,AI-5fb,AI-5fa,AI-5f,AE-3cf,AE-3abde,AI-6p,AI-6l,AI-6i,AI-6e,AE-1abc,AI-6ad,AI-6bc,AI-6fg,AI-6r,,,,2016-02-09 15:27:50.437,2013-01-30
41,AIPD - ASSOCIAZIONE ITALIANA PERSONE DOWN,783,"VIA TARAMELLI, 8 - C/O COOPERATIVA LA RETE",Trento,TN,Territorio Val D'adige,Italia,www.aipd.it,46.0608,11.11614,200.0,Associazioni,,AI-6d,AE-3cf,AE-3abde,AI-6o,AI-6l,AI-6i,AI-6fg,AI-6e,AI-6bc,AI-6ad,AE-2a,,,,,,,,2011-05-30 11:45:28,2010-07-13
42,AL 77,571,"VIA VERDI, 77",Trento,TN,Territorio Val D'adige,Italia,,46.0668965,11.1207144,200.0,Ristoranti,Pizzerie,AI-6d,AE-3cf,AE-3abde,AI-6p,AI-6fg,AI-6r,AE-2c,,,,,,,,,,,,2016-02-09 15:14:52.154,2013-01-22
43,AL CASTELLO,728,"VIA BERNARDO CLESIO, 8",Trento,TN,Territorio Val D'adige,Italia,www.alcastellotrento.com,46.0703117,11.1270439,200.0,Ristoranti,,AI-6d,AE-3cf,AE-3abde,AI-6l,AI-6i,AI-6fg,AI-6e,AE-1abc,AE-2c,AI-6r,,,,,,,,,2016-02-11 09:18:00.463,2010-07-29
44,AL FEUDO,11,"PIAZZETTA LAINEZ, 8",Trento,TN,Territorio Val D'adige,Italia,,46.068819,11.120382,324.0,Bar,,AI-6d,AE-3cf,AE-3abde,AI-6fg,AE-1abc,AE-2c,AI-6r,,,,,,,,,,,,2013-06-06 14:05:54.582,2013-02-01
45,AL MARINAIO,814,"VIA DEI MARINAI D'ITALIA, 28",Trento,TN,Territorio Val D'adige,Italia,www.almarinaio.eu,46.0383081,11.1234899,200.0,Alberghi / Hotel,Bed & Breakfast,AI-6d,AI-5fb,AI-5fa,AI-5f,AE-3cf,AE-3abde,AI-6o,AI-6l,AI-6i,AI-6fg,AI-6e,AI-8n,AI-8i,AI-8a,AI-7a,AI-7bcdef,AI-8m,AI-8efga,2018-05-30 10:30:38.615,2010-08-24
46,AL NUOVO FARO,236,"VIA BRESCIA, 45",Trento,TN,Territorio Val D'adige,Italia,,46.0709233,11.109862,190.0,Ristoranti,Pizzerie,AI-6d,AE-3cf,AE-3abde,AI-6p,AI-6l,AI-6i,AI-6fg,AI-6e,AI-6bc,AI-6ad,AE-2d,AI-6r,,,,,,,2016-02-09 09:20:10.549,2010-05-06
47,AL PARCO - BAR PASTICCERIA,157,"VIA POZZO, 1",Trento,TN,Territorio Val D'adige,Italia,,46.069931,11.119781,216.0,Pasticcerie,Bar,AI-6d,AE-3cf,AE-3abde,AI-6p,AI-6l,AI-6i,AI-6fg,AI-6e,AI-6ad,AE-1abc,AI-6bc,AI-6r,,,,,,,2016-02-01 10:32:17.695,2013-01-31
48,AL PORTEGHET,3,"PASSAGGIO DORIGONI, 3",Trento,TN,Territorio Val D'adige,Italia,,46.071177,11.124706,245.0,Bar,,AI-6d,AI-5b,AE-3cf,AE-3abde,AI-6l,AI-6i,AI-6fg,AI-6e,AI-6ad,AE-2c,AI-6bc,AE-1abc,,,,,,,2013-06-06 12:12:49.841,2013-01-04
49,ALBERMONACO,811,"VIA TORRE D'AUGUSTO, 25",Trento,TN,Territorio Val D'adige,Italia,www.albermonaco.it,46.07328,11.12628,200.0,Alberghi / Hotel,Ristoranti,AI-6d,AI-5fb,AI-5fa,AI-5f,AE-3cf,AE-3abde,AI-6o,AI-6l,AI-6i,AI-6e,AI-6bc,AI-6ad,AI-8n,AI-7bcdef,AI-8cd,AI-8i,AI-8a,AI-7a,2017-11-17 10:10:17.233,2010-02-24
50,ALL'ANFITEATRO,733,"PIAZZETTA DELL'ANFITEATRO, 10",Trento,TN,Territorio Val D'adige,Italia,,46.0692499,11.125253,200.0,Ristoranti,Self Service,AI-6d,AE-3abde,AI-6o,AI-6l,AI-6i,AI-6fg,AI-6e,AE-1abc,AI-6p,,,,,,,,,,2016-02-10 16:56:29.051,2013-01-14
51,ALLA GROTTA,738,"VICOLO S. MARCO, 6",Trento,TN,Territorio Val D'adige,Italia,,46.0697049,11.1255647,200.0,Ristoranti,Pizzerie,AI-6d,AI-6p,AE-3cf,AE-3abde,AI-6o,AI-6l,AI-6i,AI-6fg,AI-6e,AE-1abc,,,,,,,,,2013-01-28 10:00:25.806,2013-01-25
52,ALLA SCALETTA,243,"VIA SANTA MARIA MADDALENA, 7",Trento,TN,Territorio Val D'adige,Italia,,46.06861,11.1261711,200.0,Bar,,AI-6d,AE-3cf,AE-3abde,AI-6p,AI-6fg,AE-1abc,AI-5c,AI-6r,,,,,,,,,,,2013-01-31 11:14:00.8,2013-01-30
53,ALMAC Associazione per la Lotta alle Malattie Cardiovascolari,1499,"VIA SIGHELE, 5",Trento,TN,Territorio Val D'adige,Italia,,46.060606,11.123717,200.0,Associazioni,,AI-5fb,AI-5fa,AI-5f,AI-5c,AE-3cf,AE-3abde,AE-2b,AE-2a,AE-1abc,,,,,,,,,,2019-06-25 12:06:51.906,2019-06-10
54,AMBULATORI MEDICI,1116,"VIA DEI COLLI, 1",Trento,TN,Territorio Val D'adige,Italia,,46.04892,11.145598,0.0,Ambulatori Medici,,AI-6o,AE-3abde,AI-5fb,AI-5fa,AE-2b,AE-1abc,AI-6i,AI-5f,AE-2a,AI-6l,AI-6e,AE-3cf,AI-5b,AI-6d,AI-6p,,,,2017-11-15 16:43:33.274,2013-05-07
55,AMBULATORIO - STUDIO MEDICO DI MEDICINA GENERALE,110,"VIA SAN MARTINO, 11 INT. 1-14",Trento,TN,Territorio Val D'adige,Italia,,46.07391,11.125417,250.0,Ambulatori Medici,,AI-6d,AE-3cf,AE-3abde,AI-6l,AI-6i,AI-6fg,AI-6e,AI-6bc,AI-6ad,AE-1abc,,,,,,,,,2013-01-07 10:58:35.786,2009-10-06
56,AMBULATORIO COMUNALE,1318,"PIAZZA OVENO, 15 FRAZ. SOPRAMONTE",Trento,TN,Territorio Val D'adige,Italia,www.comune.trento.it,46.070925,11.058696,0.0,Ambulatori Medici,,AE-3abde,AI-5fb,AI-6fg,AI-5fa,AI-6r,AE-2b,AE-1abc,AI-6i,AI-5f,AE-2a,AI-6l,AI-6e,AE-3cf,AI-6p,AI-6d,,,,2013-12-09 10:30:09.967,2013-12-04
57,AMERICAN BAR FEELING,242,"VIA 1°ANDRONA DI BORGONUOVO, 20",Trento,TN,Territorio Val D'adige,Italia,,46.06594,11.123804,180.0,Bar,,AE-3cf,AE-3abde,AE-1abc,AE-2d,AI-6l,AI-6bc,AI-6fg,AI-6p,AI-6r,AI-6i,AI-6e,AI-6d,AI-6ad,,,,,,2013-01-17 16:11:57.583,2013-01-14
58,AMPLIFON spa,338,"VIA CAVOUR, 45",Trento,TN,Territorio Val D'adige,Italia,www.amplifon.it,46.0678737,11.1208306,180.0,Apparecchi Acustici,,AE-3cf,AE-3abde,AE-1abc,AE-2d,AE-2a,,,,,,,,,,,,,,2013-01-31 11:29:58.807,2013-01-30
59,AMPLIFON,711,"VIA BRENNERO, 10",Trento,TN,Territorio Val D'adige,Italia,,46.0890331,11.1190693,200.0,Ortopedie e Sanitarie,,AE-3cf,AE-3abde,,,,,,,,,,,,,,,,,2011-05-25 12:38:40,2010-08-04
60,AMPLIFON,722,"PIAZZA DEL TRIDENTE, 10",Trento,TN,Territorio Val D'adige,Italia,www.amplifon.it,46.0865713,11.1186229,200.0,Apparecchi Acustici,,AE-3cf,AE-3abde,AE-1abc,,,,,,,,,,,,,,,,2011-05-25 13:53:38,2010-07-29
61,AMS Attrezzature Medico Sanitarie,341,"VIA DEGASPERI, 34/3",Trento,TN,Territorio Val D'adige,Italia,www.amstrento.it,46.0508949,11.1222815,180.0,Ortopedie e Sanitarie,,AI-6d,AI-5g,AE-3cf,AE-3abde,AI-6fg,AI-6e,AI-6bc,AI-6ad,,,,,,,,,,,2010-06-16 14:43:37,2010-05-17
62,ANED - ASSOCIAZIONE NAZIONALE EMODIALIZZATI DIALISI E TRAPIANTO,524,"VIA BRONZETTI, 29",Trento,TN,Territorio Val D'adige,Italia,www.aned-onlus.it,46.058677,11.121518,200.0,Associazioni,,AI-6d,AE-3cf,AE-3abde,AI-6fg,AE-1abc,AI-6l,AI-6i,AI-6e,AI-5fa,AI-5f,AE-2d,AI-5fb,AE-2b,AE-2a,AI-6p,AI-6r,,,2019-06-13 10:03:34.62,2010-07-16
63,ANTICA TRATTORIA AI TRE GAROFANI,726,"VIA MAZZINI, 33",Trento,TN,Territorio Val D'adige,Italia,www.aitregarofani.com,46.0658117,11.1229181,200.0,Ristoranti,,AI-6d,AE-3cf,AE-3abde,AE-2d,AI-6r,AI-6fg,AE-1abc,,,,,,,,,,,,2013-01-23 14:05:31.483,2013-01-22
64,ANTICO CAFFE' COMMERCIO,1078,"VIA MANTOVA, 39",Trento,TN,Territorio Val D'adige,Italia,,46.06766,11.12412,0.0,Bar,,AE-2c,AE-3cf,AE-3abde,,,,,,,,,,,,,,,,2013-03-11 15:44:16.237,2010-09-13
65,APAN Associazione Provinciale Amici della Nefrologia,1498,"VIA SIGHELE, 5",Trento,TN,Territorio Val D'adige,Italia,www.apantrentino.it,46.060606,11.123717,200.0,Associazioni,,AI-5fb,AI-5fa,AI-5f,AI-5c,AE-3cf,AE-3abde,AE-2b,AE-2a,AE-1abc,,,,,,,,,,2019-06-25 12:00:32.143,2019-06-10
66,AQUILA D'ORO,801,"VIA BELENZANI, 76",Trento,TN,Territorio Val D'adige,Italia,www.aquiladoro.it,46.0678255,11.1214588,200.0,Alberghi / Hotel,Bed & Breakfast,AI-6d,AI-5fb,AI-5fa,AI-5f,AE-3cf,AE-3abde,AI-6l,AI-6i,AI-6fg,AI-6e,AE-1abc,AI-8i,AI-8a,AI-8n,AI-8p,AI-8efg,AI-8h,AI-8cd,2016-03-17 10:07:43.935,2013-01-16
67,ARCI DEL TRENTINO,101,"VIA S. MARTINO, 35",Trento,TN,Territorio Val D'adige,Italia,wwww.arcideltrentino.it,46.073523,11.125462,216.0,Associazioni,,AI-5c,AE-3cf,AE-3abde,AE-1abc,AI-6i,AI-6fg,AI-6d,,,,,,,,,,,,2013-01-07 10:24:35.07,2009-11-05
68,ARCIGAY DEL TRENTINO,293,"Via al Torrione, 6",Trento,TN,Territorio Val D'adige,Italia,www.arcigay.it,46.065148,11.122281,180.0,Associazioni,,AI-5fb,AI-5fa,AI-5f,AE-3cf,AE-3abde,AI-6r,AI-6p,AI-6l,AI-6i,AI-6fg,AI-6e,AI-6d,AI-6bc,AI-6ad,AE-2b,AE-2a,AE-1abc,AE-2d,2019-06-05 12:23:33.224,2010-05-14
69,ARCILESBICA TRENTINO ALTOADIGE ,1494,"Via al Torrione, 6",Trento,TN,Territorio Val D'adige,Italia,,46.065148,11.122281,200.0,Associazioni,,AI-6r,AI-6p,AI-6l,AI-6i,AI-6fg,AI-6e,AI-6d,AI-6bc,AI-6ad,AE-3cf,AE-3abde,AI-5fb,AI-5fa,AI-5f,AE-1abc,AE-2d,AE-2b,AE-2a,2019-06-05 13:50:24.36,2019-06-03
70,ARCOIRIS ONLUS ,292,"Via al Torrione, 6",Trento,TN,Territorio Val D'adige,Italia,www.arcoiris-onlus.it,46.065148,11.122281,180.0,Associazioni,,AI-5fb,AI-5fa,AI-5f,AE-3cf,AE-3abde,AE-1abc,AE-2d,AI-6r,AI-6p,AI-6l,AI-6i,AI-6fg,AI-6e,AI-6d,AI-6bc,AI-6ad,AE-2b,AE-2a,2019-06-05 12:07:33.07,2010-05-21
71,ARGO - CENTRA (Galleria d'Arte e Centro Studi e Documentazione Arte Moderna e Contemporanea),401,"Via II Androna di Borgonuovo, 3",Trento,TN,Territorio Val D'adige,Italia,www.argo-centra.com,46.065588,11.123327,200.0,Gallerie arte,,AE-3cf,AE-3abde,AE-1abc,,,,,,,,,,,,,,,,2013-01-10 10:48:59.614,2013-01-09
72,ARTE BOCCANERA CONTEMPORANEA,348,VIA MILANO 128/130,Trento,TN,Territorio Val D'adige,Italia,,46.0625754,11.13026,180.0,Gallerie arte,,AE-3cf,AE-3abde,AE-1abc,AE-2c,,,,,,,,,,,,,,,2010-06-22 12:31:30,2010-05-05
73,ARTE-SAN snc,500,"VIA PASUBIO, 3",Trento,TN,Territorio Val D'adige,Italia,,46.0587878,11.1331758,185.0,Ortopedie e Sanitarie,,AI-5eb,AI-5e,AI-5ea,AI-5d,AE-3abde,AE-1abc,AE-2c,AE-3cf,,,,,,,,,,,2017-11-17 10:13:57.724,2009-11-19
74,ASSESSORATO ALLA SOLIDARIETA' INTERNAZIONALE E ALLA CONVIVENZA,691,"VIA GAZZOLETTI, 2",Trento,TN,Territorio Val D'adige,Italia,wwww.provincia.tn.it,46.0716931,11.1225533,200.0,Uffici Pubblici,,AI-5fb,AI-5fa,AI-5f,AE-3cf,AE-3abde,AI-6o,AI-6l,AI-6i,AI-6fg,AI-6e,AI-6bc,AE-1abc,AE-2a,AI-6ad,AI-6d,,,,2013-03-01 15:08:37.682,2013-01-14
75,ASSOCIAZIONE ACHIPE,1496,"VIA BRONZETTI, 29",Trento,TN,Territorio Val D'adige,Italia,www.achipetn.org,46.058677,11.121518,0.0,Associazioni,,AE-3abde,AI-5fb,AI-6fg,AI-5fa,AE-2d,AE-1abc,AE-2b,AI-6r,AI-6i,AE-2a,AI-5f,AI-6l,AI-6e,AE-3cf,AI-6p,AI-6d,,,2019-06-24 10:57:59.947,2019-06-10
76,ASSOCIAZIONE ALISEI - Centro Progetto '92,1497,"VIA BRONZETTI, 29",Trento,TN,Territorio Val D'adige,Italia,www.progetto92.it,46.065148,11.122281,200.0,Associazioni,,AI-6fg,AI-6e,AI-6d,AE-3cf,AE-3abde,AI-5fb,AI-5fa,AI-5f,AE-1abc,AE-2d,AE-2b,AE-2a,AI-6r,AI-6p,AI-6l,AI-6i,,,2019-06-24 10:56:46.96,2019-06-10
77,ASSOCIAZIONE BANCA DEL TEMPO,509,"VIA BRONZETTI, 29",Trento,TN,Territorio Val D'adige,Italia,www.bancatempotrento.it,46.058677,11.121518,200.0,Associazioni,,AI-6d,AE-3abde,AI-6p,AE-2b,AI-6l,AI-6i,AI-6e,AI-5fb,AI-5fa,AI-5f,AE-2d,AE-1abc,AE-2a,AI-6r,AI-6fg,AE-3cf,,,2019-06-24 10:24:31.152,2010-07-27
78,ASSOCIAZIONE CANCRO - ALTERNATIVE PER VIVERE ONLUS,527,"VIA BRONZETTI, 29",Trento,TN,Territorio Val D'adige,Italia,www.alternativepervivere.com,46.058677,11.121518,200.0,Associazioni,,AI-6d,AE-3cf,AE-3abde,AI-6p,AI-6fg,AI-6l,AI-6i,AI-6e,AI-5fb,AI-5fa,AI-5f,AE-2d,AE-2b,AE-1abc,AE-2a,AI-6r,,,2019-06-13 10:33:52.57,2010-07-16
79,ASSOCIAZIONE DEI REDICOI - REVERSI POLICARPI,103,"VIA SAN MARTINO, 47",Trento,TN,Territorio Val D'adige,Italia,,46.0733165,11.1254664,216.0,Associazioni,,AI-6d,AE-3cf,AI-6l,AI-6i,AI-6fg,AI-6e,AI-6bc,AI-6ad,AE-1abc,AE-3abde,,,,,,,,,2013-01-07 10:39:18.825,2009-10-05
80,ASSOCIAZIONE LIFE - CENTRO SPORTIVO,352,"VIA DON ARCANGELO RIZZI, 6",Trento,TN,Territorio Val D'adige,Italia,www.centrosportivolife.com,46.067043,11.120071,200.0,Impianti Sportivi,,AI-6d,AI-5c,AE-3cf,AE-3abde,AI-6l,AI-6p,AI-6i,AI-6r,AE-2e,AI-6fg,AI-6e,AE-1abc,AE-2a,,,,,,2013-01-23 12:37:38.722,2013-01-22
81,ASSOCIAZIONE NADIR ,523,"VIA BRONZETTI, 29",Trento,TN,Territorio Val D'adige,Italia,www.nadironlus.it,46.058677,11.121518,200.0,Associazioni,,AI-6d,AE-3cf,AI-6fg,AE-1abc,AI-5fb,AI-5fa,AE-2d,AE-2b,AI-6i,AI-5f,AI-6l,AI-6e,AE-3abde,AE-2a,AI-6p,AI-6r,,,2019-06-13 09:50:24.247,2010-07-16
82,ASSOCIAZIONE TRENTINI NEL MONDO,528,"VIA MALFATTI, 1",Trento,TN,Territorio Val D'adige,Italia,www.trentininelmondo.it,46.0615846,11.1260785,200.0,Associazioni,,AI-6d,AI-5fb,AI-5fa,AI-5f,AE-3cf,AE-3abde,AI-6p,AI-6o,AI-6l,AI-6i,AI-6fg,AI-6e,AE-1abc,AE-2d,,,,,2011-04-07 14:30:05,2010-07-16
83,AUDIOLOGIA,755,"VIA PIAVE, 18",Trento,TN,Territorio Val D'adige,Italia,www.audiologia.iaps.tn.it,46.0641212,11.127659,200.0,Ambulatori Medici,Apparecchi Acustici,AE-3cf,AE-3abde,AE-2d,,,,,,,,,,,,,,,,2011-05-27 12:07:49,2010-07-14
84,AUDITORIUM - APSS ,747,"VIALE VERONA,""",Trento,TN,Territorio Val D'adige,Italia,,46.0577763,11.1279189,200.0,Teatri e Auditorium,,AI-6d,AE-3cf,AE-3abde,AI-6o,AI-6l,AI-6i,AI-6fg,AI-6e,AI-6bc,AI-6ad,,,,,,,,,2011-05-26 14:24:11,2010-07-13
85,AUDITORIUM SANTA CHIARA,149,"VIA SANTA CROCE,"" 67",Trento,TN,Territorio Val D'adige,Italia,www.centrosantachiara.it,46.0638997,11.1234869,235.0,Centri e sale culturali,,AI-6d,AI-5d,AE-3cf,AI-6i,AI-6fg,AI-6e,AE-1abc,AE-3abde,AI-6l,AI-6bc,AI-6o,AI-6p,AI-6ad,,,,,,2017-11-16 10:46:17.458,2016-05-03
86,AUDITORIUM VANEZE,1322,"STRADA DI VANEZE, 11 LOCALITA' VANEZE",Trento,TN,Territorio Val D'adige,Italia,www.discovertrento.it,46.051322,11.073052,0.0,Centri e sale culturali,Teatri e Auditorium,AI-6bc,AI-6r,AE-3abde,AI-6fg,AE-3cf,AI-6ad,AI-6d,,,,,,,,,,,,2015-03-02 15:31:11.79,2013-12-04
87,AUSER TRENTO onlus Associazione per l'autogestione dei servizi e la solidarietà,696,"VIA BRONZETTI,"" 29",Trento,TN,Territorio Val D'adige,Italia,www.auser.it,46.058677,11.121518,200.0,Associazioni,,AI-6d,AI-5fa,AI-5f,AE-3cf,AE-3abde,AI-6e,AI-5fb,AI-6fg,AE-2d,AE-2b,AI-6i,AI-6l,AI-6p,AE-1abc,AE-2a,AI-6r,,,2020-06-30 11:55:47.509,2010-07-16
88,AUTORIMESSA EUROPA,274,"VIA ROGGIA GRANDE, 20",Trento,TN,Territorio Val D'adige,Italia,,46.0678222,11.1247683,185.0,Parcheggi,,AE-1abc,,,,,,,,,,,,,,,,,,2010-12-22 09:58:09,2010-04-26
89,AUTOSTAZIONE,266,VIA POZZO,Trento,TN,Territorio Val D'adige,Italia,www.ttesercizio.it,46.070793,11.119393,165.0,Stazioni,,AI-6d,AE-3cf,AE-3abde,AI-6p,AI-6l,AI-6fg,AI-6e,AI-6bc,AI-6ad,AE-1abc,AI-6r,,,,,,,,2013-02-04 09:40:57.236,2013-02-01
90,AVVOCATURA DELLA PROVINCIA,787,"PIAZZA DANTE, 15",Trento,TN,Territorio Val D'adige,Italia,wwww.provincia.tn.it,46.072283,11.1207961,200.0,Uffici Pubblici,,AI-6d,AI-5fb,AI-5fa,AI-5f,AE-3cf,AE-3abde,AI-6o,AI-6l,AI-6i,AI-6fg,AI-6e,AE-1abc,,,,,,,2011-05-30 12:56:09,2010-06-30
91,"AZIENDA PER IL TURISMO TRENTO, MONTE BONDONE, VALLE DEI LAGHI",152,"PIAZZA DELLA PORTELLA, 3",Trento,TN,Territorio Val D'adige,Italia,www.apt.trento.it,46.0696,11.11864,234.0,Agenzie viaggi e Promozione Turistica,,AE-3cf,AE-3abde,AE-1abc,,,,,,,,,,,,,,,,2013-05-03 12:08:12.294,2013-01-21
92,"AZIENDA PER IL TURISMO TRENTO, MONTE BONDONE, VALLE DEI LAGHI",86,"PIAZZA DANTE, 24",Trento,TN,Territorio Val D'adige,Italia,www.apt.trento.it,46.06974,11.121573,211.0,Agenzie viaggi e Promozione Turistica,,AE-3cf,AE-3abde,AE-2d,AE-1abc,,,,,,,,,,,,,,,2019-05-02 10:31:14.144,2017-04-26
93,AZIENDA PROVINCIALE PER L'ENERGIA,674,"VIA GILLI, 4 C/O CENTRO NORD EST",Trento,TN,Territorio Val D'adige,Italia,www.provincia.tn.it,46.0906942,11.118853,200.0,Uffici Pubblici,,AI-6d,AI-5fb,AI-5fa,AI-5f,AE-3cf,AE-3abde,AI-6o,AI-6l,AI-6i,AI-6fg,AI-6e,AE-1abc,AE-2d,AE-2a,,,,,2011-05-23 12:55:40,2010-06-18
94,Agenzia del Lavoro di Trento - sede centrale,364,"Via Guardini, 75",Trento,TN,Territorio Val D'adige,Italia,www.agenzialavoro.tn.it,46.094579,11.1176606,200.0,Uffici Pubblici,,AI-5fb,AI-5fa,AI-5f,AE-3cf,AE-3abde,AE-2a,,,,,,,,,,,,,2010-08-03 14:59:12,2010-07-29
95,Agenzia delle Entrate,363,"Via Brennero, 133",Trento,TN,Territorio Val D'adige,Italia,www.agenziaentrate.it,46.088087,11.1172982,200.0,Uffici Pubblici,,AI-5fb,AI-5fa,AI-5f,AE-3cf,AE-3abde,AE-1abc,AE-2d,,,,,,,,,,,,2010-08-03 14:33:56,2010-07-30
96,Alpina Tourdolomit,398,"Via San Marco, 19",Trento,TN,Territorio Val D'adige,Italia,www.alpina-tourdolomit.com,46.0702565,11.1253927,200.0,Agenzie viaggi e Promozione Turistica,,AE-3cf,AE-3abde,AE-1abc,,,,,,,,,,,,,,,,2013-01-28 11:21:56.314,2013-01-25
97,Archivio Notarile Distrettuale,362,"Corso Buonarroti, 53",Trento,TN,Territorio Val D'adige,Italia,www.giustizia.it,46.073301,11.1181218,200.0,Uffici Pubblici,,AI-5fb,AI-5fa,AI-5f,AE-3cf,AE-3abde,AE-1abc,,,,,,,,,,,,,2010-08-03 14:23:33,2010-07-30
98,Area Archeologica di Palazzo Lodron,439,"Piazza Lodron, 31",Trento,TN,Territorio Val D'adige,Italia,www.trentinocultura.net,46.0679041,11.12269,200.0,Musei,,AI-5fa,AI-5f,AE-3cf,AE-1abc,AE-3abde,AI-5fb,,,,,,,,,,,,,2018-07-12 13:56:54.806,2013-01-04
99,Associazione Agriturismo Trentino,296,"Via Jacopo Aconcio, 13",Trento,TN,Territorio Val D'adige,Italia,www.agriturismotrentino.com,46.074522,11.1225305,180.0,Associazioni,,AE-3cf,AE-3abde,AE-1abc,AE-2c,,,,,,,,,,,,,,,2010-06-08 11:53:43,2010-05-21
100,Associazione Alzheimer Trento onlus,294,"Via al Torrione, 6",Trento,TN,Territorio Val D'adige,Italia,www.alzheimertrento.org,46.065148,11.122281,180.0,Associazioni,,AI-5fb,AI-5fa,AI-5f,AE-3cf,AE-3abde,AE-1abc,AE-2d,AE-2b,AE-2a,AI-6fg,AI-6r,AI-6bc,AI-6i,AI-6l,AI-6e,AI-6p,AI-6d,AI-6ad,2019-06-05 11:05:16.25,2010-05-18
101,Associazione Parkinson,508,"VIA BRONZETTI, 29",Trento,TN,Territorio Val D'adige,Italia,www.parkinson-trento.it,46.058677,11.121518,200.0,Associazioni,,AI-6d,AE-3cf,AI-6p,AI-6i,AI-6fg,AI-6l,AI-6e,AI-5fb,AI-5fa,AE-2b,AI-5f,AE-1abc,AE-2d,AE-2a,AI-6r,AE-3abde,,,2020-06-30 10:59:22.515,2010-07-27
102,Atelier d'Arte - Studio di esposizione permanente,488,"Via Giovanelli, 35",Trento,TN,Territorio Val D'adige,Italia,,46.0641872,11.1312581,200.0,Gallerie arte,,AE-3cf,AE-3abde,AE-1abc,,,,,,,,,,,,,,,,2010-09-17 14:31:32,2010-07-14
103,Audiometrica Trentina,492,"Via San Bernardino, 14/2",Trento,TN,Territorio Val D'adige,Italia,,46.0641714,11.1292017,200.0,Apparecchi Acustici,,AI-5b,AE-3cf,AE-3abde,AE-1abc,,,,,,,,,,,,,,,2010-09-21 12:39:51,2010-07-14
104,B & B ADA,803,"VIA MAZZINI, 4",Trento,TN,Territorio Val D'adige,Italia,www.bbada.it,46.066297,11.122649,200.0,Bed & Breakfast,,AE-3cf,AI-8i,AI-8n,AI-8efg,AI-8cd,AI-8a,AI-7bcdef,AI-7a,AE-2a,AE-3abde,,,,,,,,,2016-03-17 11:01:09.38,2013-01-11
105,B & B ANNA,802,"VIA MILANO, 12",Trento,TN,Territorio Val D'adige,Italia,,46.0599099,11.1170455,200.0,Bed & Breakfast,,AI-5b,AE-3cf,AE-3abde,AI-7bcdef,AI-7a,AI-8a,AI-8p,AI-8h,AI-8n,AI-8i,AI-8cd,,,,,,,,2016-03-17 10:53:43.569,2010-09-06
106,B & B CAFFE' CITTA',30,"PIAZZA CESARE BATTISTI, 10",Trento,TN,Territorio Val D'adige,Italia,,46.06951,11.12374,214.0,Bar,,AI-6d,AE-3cf,AE-3abde,AI-6l,AI-6i,AI-6fg,AI-6e,AI-6bc,AI-6ad,AE-1abc,AI-6p,AI-6r,,,,,,,2013-01-14 08:51:48.831,2013-01-11
107,B & B CASA POMPERMAIER,804,"VIA ALDO SCHMIDT, 5",Trento,TN,Territorio Val D'adige,Italia,www.casapompermaier.it,46.05687,11.12548,200.0,Bed & Breakfast,,AE-3cf,AE-3abde,AI-7bcdef,AI-7a,AI-8efg,AI-8a,AI-8n,AI-8i,AI-8cd,AE-2c,AE-2a,,,,,,,,2016-03-17 11:15:46.209,2010-08-27
108,BAGNI PUBBLICI,83,PIAZZA DANTE,Trento,TN,Territorio Val D'adige,Italia,,46.06824,11.12146,210.0,Servizi Igienici,,AI-6d,AE-3cf,AE-3abde,AI-6l,AI-6i,AI-6e,AE-1abc,AI-6fg,AI-6ad,AI-6r,AI-6bc,AE-2d,AI-6p,,,,,,2018-05-14 15:26:46.886,2013-01-16
109,BANCA BOVIO CALDERARI GRUPPO BANCA SELLA,265,VIA POZZO,Trento,TN,Territorio Val D'adige,Italia,,46.07056,11.12037,163.0,Bancomat,,AE-1abc,,,,,,,,,,,,,,,,,,2010-05-13 07:55:41,2010-03-30
110,BANCA DI TRENTO E BOLZANO,165,"VIA MANTOVA, 19",Trento,TN,Territorio Val D'adige,Italia,www.btbonline.it,46.06802,11.12369,173.0,Bancomat,,AE-4h,AE-1abc,AE-2d,,,,,,,,,,,,,,,,2013-01-31 14:30:23.519,2013-01-24
111,BANCA DI TRENTO E BOLZANO,172,"VIA TRAVAI, 236",Trento,TN,Territorio Val D'adige,Italia,,46.06473,11.12315,195.0,Bancomat,,AE-4h,AE-1abc,,,,,,,,,,,,,,,,,2010-12-17 15:19:49,2010-02-02
112,BANCA INTESA,314,"VIA GOCCIADORO, 20/22",Trento,TN,Territorio Val D'adige,Italia,,46.0555133,11.1325223,180.0,Bancomat,,AE-4h,AE-3cf,AE-3abde,AE-1abc,,,,,,,,,,,,,,,2010-12-17 15:22:48,2010-05-25
113,BANCA INTESA,47,"VIA ORIOLA, 36",Trento,TN,Territorio Val D'adige,Italia,,46.06854,11.12075,228.0,Bancomat,,AE-4h,AE-1abc,,,,,,,,,,,,,,,,,2010-12-17 15:24:00,2009-11-12
114,BANCA NAZIONALE DEL LAVORO,272,"PIAZZA DANTE, 1",Trento,TN,Territorio Val D'adige,Italia,,46.07265,11.11985,185.0,Bancomat,,AE-4h,AE-3cf,AE-3abde,AE-1abc,AE-2d,,,,,,,,,,,,,,2010-12-17 15:25:39,2010-03-23
115,BANCA POPOLARE DEL TRENTINO,169,"VIA S. CROCE, 43",Trento,TN,Territorio Val D'adige,Italia,,46.06388,11.12348,188.0,Bancomat,,AE-4h,,,,,,,,,,,,,,,,,,2010-12-21 09:34:28,2010-01-29
116,BANCA POPOLARE DEL TRENTINO,317,"VIA VITTORIO VENETO, 18",Trento,TN,Territorio Val D'adige,Italia,,46.057739,11.120795,180.0,Bancomat,,AE-4h,AE-1abc,,,,,,,,,,,,,,,,,2011-03-21 10:11:40,2010-05-17
117,BANCA POPOLARE DEL TRENTINO,327,"VIA BOLGHERA, 38",Trento,TN,Territorio Val D'adige,Italia,,46.0583945,11.130563,180.0,Bancomat,,AE-4h,AE-3cf,AE-3abde,AE-1abc,AE-2d,,,,,,,,,,,,,,2010-12-17 15:28:53,2010-05-17
118,BANCA POPOLARE DI VICENZA,156,"VIA ROSMINI, 1",Trento,TN,Territorio Val D'adige,Italia,,46.06821,11.11862,213.0,Bancomat,,AE-4h,AE-1abc,,,,,,,,,,,,,,,,,2017-11-17 10:15:06.274,2010-01-26
119,BANCA POPOLARE TEDESCA - VOLKSBANK,175,VIA S. CROCE,Trento,TN,Territorio Val D'adige,Italia,www.bancapopolare.it,46.06402,11.12358,220.0,Bancomat,,AE-4h,AE-3cf,AE-3abde,AE-1abc,,,,,,,,,,,,,,,2017-11-17 10:16:14.8,2010-02-02
120,BANCA SELLA NORD EST BOVIO CALDERARI,187,"VIA PERINI, 20",Trento,TN,Territorio Val D'adige,Italia,,46.06056,11.12244,210.0,Bancomat,,AE-4h,AE-1abc,,,,,,,,,,,,,,,,,2013-01-07 15:51:19.732,2010-02-09
121,BANCA SELLA NORDEST BOVIO CALDERARI,164,"VIA OSS MAZZURANA, 59",Trento,TN,Territorio Val D'adige,Italia,,46.06823,11.12244,213.0,Bancomat,,AE-4h,AE-3cf,AE-3abde,AE-1abc,AE-2c,,,,,,,,,,,,,,2013-02-01 16:47:01.951,2013-02-01
122,BANCA SELLA NORDEST BOVIO CALDERARI,72,"VIA OSS MAZZURANA, 59",Trento,TN,Territorio Val D'adige,Italia,,46.06823,11.12244,213.0,Bancomat,,AE-4h,,,,,,,,,,,,,,,,,,2010-12-17 14:51:05,2009-11-11
123,BANCOMAT BANCA ANTONVENETA GRUPPO MONTEPASCHI,589,"VIA SAN SEVERINO, 7",Trento,TN,Territorio Val D'adige,Italia,,46.0653236,11.1140684,200.0,Bancomat,,AE-4h,,,,,,,,,,,,,,,,,,2011-04-08 14:33:17,2010-04-21
124,BANCOMAT BANCA DI TRENTO E BOLZANO,586,"VIALE VERONA, 128/A",Trento,TN,Territorio Val D'adige,Italia,,46.0535972,11.129761,200.0,Bancomat,,AE-4h,,,,,,,,,,,,,,,,,,2017-11-17 10:17:34.091,2010-05-17
125,BANCOMAT BANCA NAZIONALE DEL LAVORO,538,"VIA ROMAGNOSI,"" 9 - C/O CENTRO EUROPA",Trento,TN,Territorio Val D'adige,Italia,,46.0730641,11.1222183,200.0,Bancomat,,AE-4h,,,,,,,,,,,,,,,,,,2017-11-17 10:18:27.912,2010-07-23
126,BANCOMAT BANCA POPOLARE DEL TRENTINO,542,"VIA PETRARCA, 1/7",Trento,TN,Territorio Val D'adige,Italia,,46.0724524,11.1237509,200.0,Bancomat,,AE-4h,,,,,,,,,,,,,,,,,,2011-04-07 18:58:30,2010-07-07
127,BANCOMAT BANCA POPOLARE DEL TRENTINO,613,"VIA GUARDINI, 50",Trento,TN,Territorio Val D'adige,Italia,,46.0940657,11.1179657,200.0,Bancomat,,AE-4h,,,,,,,,,,,,,,,,,,2011-04-12 13:28:53,2010-08-06
128,BANCOMAT BANCA POPOLARE DELL'EMILIA ROMAGNA,543,"PIAZZA GENERALE CANTORE, 32",Trento,TN,Territorio Val D'adige,Italia,,46.0769709,11.1198829,200.0,Bancomat,,AE-4h,AE-1abc,,,,,,,,,,,,,,,,,2011-04-07 19:04:12,2010-07-07
129,BANCOMAT BANCA POPOLARE DI SONDRIO,633,"VIA PETRARCA, 14",Trento,TN,Territorio Val D'adige,Italia,,46.0538783,11.1173177,200.0,Bancomat,,AE-4h,AE-3cf,AE-3abde,AE-1abc,,,,,,,,,,,,,,,2011-04-20 14:46:17,2010-07-20
130,BANCOMAT BANCA POPOLARE VOLKSBANK,611,"VIA ENRICO FERMI, 11",Trento,TN,Territorio Val D'adige,Italia,,46.0474893,11.126253,200.0,Bancomat,,AE-3cf,AE-3abde,,,,,,,,,,,,,,,,,2011-04-12 10:38:27,2010-06-30
131,BANCOMAT BANCA TRENTO E BOLZANO,536,"VIA FRATELLI FONTANA, 44",Trento,TN,Territorio Val D'adige,Italia,,46.0769289,11.118952,200.0,Bancomat,,AE-3cf,AE-3abde,AE-1abc,AE-2d,,,,,,,,,,,,,,,2017-11-17 10:19:55.726,2010-07-20
132,BANCOMAT BANCA TRENTO E BOLZANO,590,"VIA SAN PIO X, 97",Trento,TN,Territorio Val D'adige,Italia,,46.0538783,11.1206155,200.0,Bancomat,,AE-4h,,,,,,,,,,,,,,,,,,2017-11-17 10:20:38.565,2010-05-17
133,BANCOMAT BNL GRUPPO BNP ,534,"VIA FRATELLI FONTANA, 34",Trento,TN,Territorio Val D'adige,Italia,,46.0769089,11.118952,200.0,Bancomat,,AE-3cf,AE-3abde,AE-1abc,AE-2c,,,,,,,,,,,,,,,2011-04-07 16:04:47,2010-07-20
134,BANCOMAT CASSA DI RISPARMIO DI PADOVA E ROVIGO,539,"VIA ROMAGNOSI,"" 9 - C/O CENTRO EUROPA",Trento,TN,Territorio Val D'adige,Italia,,46.0730641,11.1222183,200.0,Bancomat,,AE-4h,AE-3cf,AE-3abde,,,,,,,,,,,,,,,,2017-11-17 10:21:40.823,2010-07-23
135,BANCOMAT CASSA RURALE DI ALDENO E CADINE,591,"VIA DEGASPERI, 92",Trento,TN,Territorio Val D'adige,Italia,,46.0500962,11.1242938,200.0,Bancomat,,AE-4h,AE-3cf,AE-3abde,,,,,,,,,,,,,,,,2017-11-17 10:22:53.951,2010-05-17
136,BANCOMAT CASSA RURALE DI ALDENO E CADINE,593,"VIA BRESCIA, 19",Trento,TN,Territorio Val D'adige,Italia,,46.0706406,11.1119991,180.0,Bancomat,,AE-4h,AE-3cf,AE-3abde,,,,,,,,,,,,,,,,2017-11-17 10:23:45.63,2010-04-22
137,BANCOMAT CASSA RURALE DI LAVIS E VALLE DI CEMBRA,533,"LARGO NAZARIO SAURO, 4",Trento,TN,Territorio Val D'adige,Italia,,46.0745334,11.1249043,200.0,Bancomat,,AE-1abc,AE-2c,,,,,,,,,,,,,,,,,2011-04-07 15:59:48,2010-07-20
138,BANCOMAT CASSA RURALE DI LAVIS E VALLE DI CEMBRA,540,"LARGO NAZARIO SAURO, 8",Trento,TN,Territorio Val D'adige,Italia,,46.0746621,11.1248997,200.0,Bancomat,,AE-1abc,AE-2c,,,,,,,,,,,,,,,,,2013-03-01 15:12:10.08,2010-07-20
139,BANCOMAT CASSA RURALE DI TRENTO,537,"CORSO BUONARROTI, 39",Trento,TN,Territorio Val D'adige,Italia,,46.0743344,11.1186019,200.0,Bancomat,,AE-4h,AE-3cf,AE-3abde,AE-1abc,AE-2c,AE-2a,,,,,,,,,,,,,2011-04-07 18:35:45,2010-07-20
140,BANCOMAT CASSA RURALE DI TRENTO,544,"PIAZZA GENERALE CANTORE, 23",Trento,TN,Territorio Val D'adige,Italia,,46.0773905,11.1199732,100.0,Bancomat,,AE-4h,AE-1abc,AE-2c,,,,,,,,,,,,,,,,2011-04-07 19:08:19,2010-07-07
141,BANCOMAT MEDIO VALTELLINESE,609,"PIAZZA PASI, 21",Trento,TN,Territorio Val D'adige,Italia,,46.0678927,11.12298,200.0,Bancomat,,AE-4h,AE-2c,,,,,,,,,,,,,,,,,2017-11-17 10:24:49.378,2010-06-28
142,BANCOMAT UNICREDIT BANCA,545,"VIA FRATELLI FONTANA, 34",Trento,TN,Territorio Val D'adige,Italia,,46.0769089,11.118952,200.0,Bancomat,,,,,,,,,,,,,,,,,,,,2011-04-07 19:53:58,2010-07-07
143,BAR 70,189,"VIA ENDRICI, 5",Trento,TN,Territorio Val D'adige,Italia,,46.06041,11.12191,226.0,Bar,,AI-6d,AE-3cf,AE-3abde,AI-6p,AI-6i,AI-6fg,AI-6e,AI-6bc,AI-6ad,AE-1abc,AE-2c,AI-6r,,,,,,,2013-01-07 15:56:11.077,2010-02-09
144,BAR 900,615,"VIA VERDI, 11",Trento,TN,Territorio Val D'adige,Italia,,46.0664885,11.1167514,200.0,Bar,,AE-3cf,AE-3abde,AE-1abc,,,,,,,,,,,,,,,,2011-04-12 13:35:13,2010-08-09
145,BAR ADRIA S.A.S.,580,"LARGO NAZARIO SAURO, 4",Trento,TN,Territorio Val D'adige,Italia,,46.0745334,11.1249043,200.0,Bar,,AE-3cf,AE-3abde,AI-6p,AI-6ad,AE-1abc,AE-2d,AI-6bc,AI-6d,AI-6r,AI-6fg,,,,,,,,,2013-01-14 12:19:08.003,2010-07-20
146,BAR AL MARINAIO,430,"VIA DEI MARINAI D'ITALIA, 28",Trento,TN,Territorio Val D'adige,Italia,www.almarinaio.eu,46.0385886,11.1232387,200.0,Pasticcerie,Bar,AI-6d,AE-3cf,AE-3abde,AI-6p,AI-6o,AI-6l,AI-6i,AI-6fg,AI-6e,,,,,,,,,,2018-05-30 10:32:04.738,2010-08-24
147,BAR BACCUS,174,"PIAZZA FIERA, 11",Trento,TN,Territorio Val D'adige,Italia,,46.06488,11.12364,196.0,Bar,,AI-6d,AE-3abde,AI-6p,AI-6o,AI-6l,AI-6i,AI-6fg,AI-6e,AE-1abc,AE-2d,AE-3cf,,,,,,,,2015-12-01 11:48:28.484,2013-01-09
148,BAR CAFFETTERIA NETTUNO,90,"VIA CAVOUR, 40",Trento,TN,Territorio Val D'adige,Italia,,46.06788,11.12082,212.0,Bar,,AI-6d,AI-5c,AE-3cf,AE-3abde,AI-6i,AI-6fg,AI-6e,AE-1abc,AE-2c,AI-6l,AI-6r,AI-6p,,,,,,,2013-01-31 08:39:57.802,2013-01-30
149,BAR CAFFÉ RANDRÉ,143,"LARGO CARDUCCI GIOSUÉ, 16",Trento,TN,Territorio Val D'adige,Italia,,46.06835,11.12433,198.0,Bar,,AI-5b,AE-3cf,AE-3abde,AI-6fg,AI-6bc,AI-6ad,AE-1abc,AI-6d,,,,,,,,,,,2017-11-17 10:27:21.648,2013-01-11
150,BAR CARDUCCI,76,"LARGO CARDUCCI, 25",Trento,TN,Territorio Val D'adige,Italia,,46.06837,11.1247,209.0,Bar,,AI-6d,AE-3cf,AE-3abde,AI-6l,AI-6i,AI-6fg,AI-6e,AI-6bc,AI-6ad,AE-1abc,,,,,,,,,2013-01-14 09:49:05.093,2013-01-11
151,BAR CARLA,518,"VIA DEL BRENNERO, 46",Trento,TN,Territorio Val D'adige,Italia,,46.076593,11.124022,200.0,Bar,,AI-6d,AI-5b,AE-3cf,AE-3abde,AI-6p,AI-6fg,AI-6bc,AI-6ad,AE-1abc,AI-6r,,,,,,,,,2015-06-08 17:56:31.336,2010-07-14
152,BAR CAVOUR,23,"PIAZZA SANTA MARIA MAGGIORE, 19",Trento,TN,Territorio Val D'adige,Italia,,46.06835,11.12003,308.0,Bar,,AI-6d,AE-3cf,AE-3abde,AI-6fg,AI-6bc,AI-6ad,AE-1abc,AI-6r,,,,,,,,,,,2013-06-06 15:43:20.276,2013-01-21
153,BAR CENTRO NORD 3,689,"VIA GILLI, 4 C/O UFFICIO CATASTO",Trento,TN,Territorio Val D'adige,Italia,,46.0906942,11.118853,200.0,Uffici Pubblici,,AI-6d,AI-6o,AI-6l,AI-6i,AI-6fg,,,,,,,,,,,,,,2011-05-24 13:19:58,2010-07-16
154,BAR CIN CIN,238,"VIA BRESCIA, 38",Trento,TN,Territorio Val D'adige,Italia,,46.0706371,11.1118726,195.0,Bar,,AI-6d,AI-5b,AE-3cf,AE-3abde,AI-6p,AI-6fg,AI-6bc,AI-6ad,AE-1abc,AE-2c,AI-6r,,,,,,,,2013-01-08 16:51:03.307,2010-05-06
155,BAR CITY,60,"VIA ROGGIA GRANDE, 24",Trento,TN,Territorio Val D'adige,Italia,,46.06778,11.12478,215.0,Bar,,AI-6d,AE-3cf,AE-3abde,AI-6fg,AI-6bc,AI-6ad,AE-1abc,,,,,,,,,,,,2013-01-17 11:56:59.918,2013-01-15
156,BAR DA CLESIO DI CACCO VITO,7,"PIAZZA DELLA MOSTRA, 22",Trento,TN,Territorio Val D'adige,Italia,,46.0715,11.12583,193.0,Bar,,AI-6d,AE-3cf,AE-3abde,AI-6i,AI-6ad,AE-1abc,AE-2d,AI-6bc,AI-6l,AI-6fg,AI-6e,,,,,,,,2013-06-06 13:55:21.327,2013-01-04
157,BAR DANY,630,"VIA GIUSTI, 45",Trento,TN,Territorio Val D'adige,Italia,,46.0589265,11.1190522,200.0,Bar,,AI-6d,AE-3cf,AE-3abde,AI-6p,AI-6o,AI-6l,AI-6i,AI-6fg,AI-6e,AI-6ad,AE-1abc,AI-6bc,,,,,,,2017-11-17 10:28:24.38,2010-07-01
158,BAR DEI CAVAI ERREDI SAS,106,"VIA SAN MARTINO, 90",Trento,TN,Territorio Val D'adige,Italia,,46.0722025,11.1251825,256.0,Bar,,AI-6d,AI-5b,AE-3cf,AI-6i,AI-6fg,AI-6bc,AE-1abc,AE-2c,AE-3abde,AI-6ad,,,,,,,,,2013-01-07 10:45:58.499,2009-10-06
159,BAR DOGANA,264,"VIA ROMAGNOSI, 2",Trento,TN,Territorio Val D'adige,Italia,,46.0734,11.12094,196.0,Bar,,AI-6d,AE-3abde,AI-6fg,AI-6bc,AI-6ad,AI-6r,AE-3cf,,,,,,,,,,,,2013-01-10 21:37:03.496,2010-03-23
160,BAR DUOMO,146,"VIA VERDI, 42",Trento,TN,Territorio Val D'adige,Italia,,46.06686,11.12063,213.0,Bar,,AI-6d,AE-3cf,AE-3abde,AI-6l,AI-6i,AI-6fg,AI-6r,AI-6e,AI-6bc,AI-6ad,AE-1abc,,,,,,,,2013-01-23 11:15:15.157,2013-01-22
161,BAR ELISABETTA,795,"VIA VENETO, 116",Trento,TN,Territorio Val D'adige,Italia,,46.0585945,11.1235398,200.0,Bar,,AI-6d,AE-3cf,AE-3abde,AI-6fg,AI-6bc,AI-6ad,AE-1abc,AE-2c,AI-6r,,,,,,,,,,2013-01-18 11:59:30.941,2010-07-01
162,BAR FIORENTINA,56,VIA CALEPINA,Trento,TN,Territorio Val D'adige,Italia,,46.06698,11.12245,205.0,Bar,,AI-6d,AE-3cf,AE-3abde,AI-6l,AI-6i,AI-6fg,AI-6e,AE-1abc,AI-6p,AI-6r,,,,,,,,,2013-01-10 12:17:16.02,2013-01-09
163,BAR FONTANARI,626,"VIA DEGASPERI, 51",Trento,TN,Territorio Val D'adige,Italia,,46.0497818,11.1248527,200.0,Bar,,AI-6d,AE-3cf,AE-3abde,AI-6p,AI-6o,AI-6l,AI-6i,AI-6fg,AI-6e,AI-6bc,AI-6ad,,,,,,,,2011-04-12 14:43:05,2010-06-30
164,BAR FUNIVIA,235,"LUNGADIGE MONTE GRAPPA, 1",Trento,TN,Territorio Val D'adige,Italia,,46.07001,11.1155238,200.0,Bar,,AI-6d,AE-3cf,AE-3abde,AI-6p,AI-6o,AI-6l,AI-6fg,AI-6e,AI-6bc,AI-6ad,AE-1abc,AI-6r,AI-6i,,,,,,2020-02-11 15:28:21.98,2010-05-06
165,BAR GAIA,710,"VIA MACCANI, 128",Trento,TN,Territorio Val D'adige,Italia,www.risto3.it,46.0890708,11.1097177,200.0,Bar,,AI-6d,AE-3cf,AE-3abde,AI-6l,AI-6i,AI-6fg,AI-6e,AI-6bc,AI-6ad,AI-6r,,,,,,,,,2013-01-14 12:40:36.62,2010-08-06
166,BAR GALASSO,161,"VIA TORRE VERDE, 4",Trento,TN,Territorio Val D'adige,Italia,,46.07064,11.12229,196.0,Bar,Osterie / Trattorie,AI-6d,AE-3cf,AE-3abde,AI-6bc,AI-6ad,AE-1abc,AI-6r,AI-6p,AI-6fg,,,,,,,,,,2013-04-11 12:25:11.083,2013-01-10
167,BAR GARZETTI,55,"PIAZZA GARZETTI, 5",Trento,TN,Territorio Val D'adige,Italia,,46.065687,11.124279,248.0,Bar,,AI-6d,AE-3cf,AI-6l,AI-6i,AI-6e,AE-2d,AE-1abc,AE-3abde,AI-6fg,AI-6r,,,,,,,,,2015-12-01 11:54:54.799,2013-01-09
168,BAR GELATERIA NUOVA,51,"VIA MAZZINI, 1",Trento,TN,Territorio Val D'adige,Italia,,46.0660869,11.1227717,194.0,Bar,,AI-6d,AE-3cf,AE-3abde,AI-6bc,AI-6ad,AE-1abc,AI-6fg,,,,,,,,,,,,2015-12-01 12:04:22.676,2013-01-09
169,BAR GIUSTI,661,"VIA GIUSTI, 22",Trento,TN,Territorio Val D'adige,Italia,,46.0611555,11.1189909,200.0,Bar,,AI-6d,AE-3cf,AE-3abde,AI-6fg,AI-6e,AI-6bc,AI-6ad,AE-1abc,AE-2c,AI-6r,,,,,,,,,2013-01-15 20:45:49.591,2010-06-30
170,BAR GOLDEN EAGLE STREET BAR,57,VIA BELENZANI 74,Trento,TN,Territorio Val D'adige,Italia,,46.06794,11.12135,214.0,Bar,,AI-6d,AI-5fb,AI-5fa,AI-5f,AE-3cf,AE-3abde,AI-6l,AI-6i,AI-6fg,AI-6e,AE-1abc,AI-6p,AI-6r,,,,,,2013-01-17 11:49:29.6,2013-01-16
171,BAR ITALIA,41,"PIAZZA DUOMO, 7",Trento,TN,Territorio Val D'adige,Italia,,46.06711,11.12072,180.0,Bar,,AI-6d,AE-3cf,AE-3abde,AI-6i,AI-6fg,AI-6e,AI-6bc,AI-6ad,AE-1abc,AE-2c,AI-6r,,,,,,,,2015-12-01 12:12:38.776,2013-01-16
172,BAR JOHNNY,75,"VIA CALEPINA, 69",Trento,TN,Territorio Val D'adige,Italia,,46.06731,11.12572,207.0,Bar,,AI-6d,AE-3cf,AE-3abde,AI-6i,AI-6fg,AE-1abc,AE-2d,AI-6r,,,,,,,,,,,2013-01-15 11:56:33.204,2013-01-14
173,BAR MADISON,579,VIA BRENNERO 5/1,Trento,TN,Territorio Val D'adige,Italia,,46.0754067,11.1246646,200.0,Bar,,AI-6d,AE-3cf,AE-3abde,AI-6p,AI-6o,AI-6l,AI-6i,AI-6fg,AI-6e,AI-6bc,AI-6ad,AE-1abc,,,,,,,2011-04-08 13:32:25,2010-07-20
174,BAR MAGNANI,700,"CORSO BUONARROTI, 26",Trento,TN,Territorio Val D'adige,Italia,,46.074644,11.1187048,200.0,Bar,,AI-6d,AE-3cf,AE-3abde,AI-6o,AI-6l,AI-6i,AI-6bc,AI-6ad,AE-1abc,AE-2c,AI-6fg,AI-6e,,,,,,,2015-12-01 12:08:43.4,2010-07-20
175,BAR MARCHIODI,43,"PIAZZA ITALIA, 4",Trento,TN,Territorio Val D'adige,Italia,,46.0694654,11.1233431,320.0,Bar,,AI-5fb,AI-6d,AI-5fa,AI-5f,AE-3cf,AE-3abde,AI-6l,AI-6i,AI-6fg,AI-6e,AI-6bc,AI-6ad,AI-6r,,,,,,2013-01-14 08:56:14.156,2013-01-11
176,BAR MAZZINI,52,"VIA MAZZINI, 50",Trento,TN,Territorio Val D'adige,Italia,,46.065612,11.122987,210.0,Bar,,AI-6d,AE-3cf,AE-3abde,AI-6l,AI-6i,AI-6fg,AI-6e,AI-6bc,AI-6ad,AI-6r,,,,,,,,,2013-01-15 10:58:04.96,2013-01-09
177,BAR MAZZOLENI MARI,566,"PIAZZA GENERALE CANTORE, 28",Trento,TN,Territorio Val D'adige,Italia,,46.0772226,11.120008,200.0,Bar,,AI-6d,AE-3cf,AE-3abde,AI-6p,AI-6fg,AE-1abc,AE-2c,AI-6r,,,,,,,,,,,2013-01-14 12:05:14.916,2010-07-07
178,BAR MEDAGLIE D'ORO,213,"LARGO MEDAGLIE D'ORO, 2",Trento,TN,Territorio Val D'adige,Italia,,46.0577455,11.1325995,180.0,Bar,,AI-6d,AE-3cf,AE-3abde,AI-6p,AI-6l,AI-6i,AI-6fg,AI-6e,AI-6bc,AI-6ad,AE-1abc,AE-2d,AI-6o,,,,,,2017-11-17 10:35:10.424,2010-04-13
179,BAR MEETING,231,"VIA XXIV MAGGIO, 1",Trento,TN,Territorio Val D'adige,Italia,,46.0637,11.12206,258.0,Bar,,AI-6d,AE-3cf,AE-3abde,AI-6p,AI-6i,AI-6fg,AI-6bc,AI-6ad,AE-1abc,AI-6r,,,,,,,,,2013-01-08 16:11:40.267,2010-03-17
180,BAR MELODY,627,"VIALE VERONA, 134",Trento,TN,Territorio Val D'adige,Italia,,46.0533334,11.12974356,200.0,Bar,,AI-6d,AE-3cf,AE-3abde,AI-6p,AI-6o,AI-6l,AI-6i,AI-6fg,AI-6e,AI-6bc,AI-6ad,AE-1abc,AE-2d,AE-2c,,,,,2017-11-17 10:36:19.489,2010-06-30
181,BAR OLIMPIA,24,"VIA BELENZANI, 33/1",Trento,TN,Territorio Val D'adige,Italia,www.caffeolimpia.com,46.06812,11.12124,195.0,Bar,,AI-6d,AI-5b,AE-3cf,AE-3abde,AI-6i,AI-6fg,AI-6bc,AI-6ad,AE-1abc,AE-2d,AI-6r,,,,,,,,2013-06-06 15:49:09.074,2013-01-15
182,BAR ORCHIDEA,15,"VIA ORFANE, 17",Trento,TN,Territorio Val D'adige,Italia,,46.068984,11.120076,203.0,Bar,,AI-6d,AI-5b,AE-3cf,AI-6i,AI-6fg,AI-6bc,AI-6ad,AE-1abc,AI-6r,AE-3abde,,,,,,,,,2013-06-06 15:01:46.472,2013-01-31
183,BAR ORIOLA,8,"VIA ORIOLA, 28",Trento,TN,Territorio Val D'adige,Italia,,46.06834,11.12346,199.0,Bar,,AI-6d,AE-3cf,AE-3abde,AI-6l,AI-6i,AI-6fg,AI-6e,AI-6bc,AI-6ad,AE-1abc,AI-6r,,,,,,,,2013-01-14 09:59:04.2,2013-01-11
184,BAR PASI,39,PIAZZA PASI,Trento,TN,Territorio Val D'adige,Italia,,46.06781,11.12209,199.0,Bar,,AI-6d,AE-3cf,AE-3abde,AI-6fg,AI-6ad,AE-1abc,AI-6r,AI-6bc,,,,,,,,,,,2013-01-14 11:46:22.333,2013-01-11
185,BAR PASTICCERIA TEATRO,1370,"Via Oss Mazzurana, 15",Trento,TN,Territorio Val D'adige,Italia,,46.069367,11.122515,0.0,Pasticcerie,Bar,AI-6e,AI-6p,AI-6d,AE-1abc,AI-6fg,AE-3abde,AI-6i,AE-3cf,AI-6l,AE-2d,AI-6o,,,,,,,,2016-01-29 11:34:18.147,2014-10-14
186,BAR PERINI CIVICO 131,192,"VIA PERINI, 131",Trento,TN,Territorio Val D'adige,Italia,,46.06042,11.12195,185.0,Bar,,AI-6d,AE-3cf,AE-3abde,AI-6p,AI-6o,AI-6l,AI-6i,AI-6fg,AI-6e,AE-1abc,AE-2d,AE-2c,AI-6r,,,,,,2016-01-05 16:30:50.263,2010-02-09
187,BAR PRATI,657,"VIA DEI MURADEI, 4",Trento,TN,Territorio Val D'adige,Italia,,46.057213,11.1181957,200.0,Bar,,AI-6d,AI-5b,AE-3cf,AE-3abde,AI-6fg,AI-6e,AI-6bc,AI-6ad,AE-1abc,AE-2c,AI-6r,,,,,,,,2013-01-15 20:53:09.797,2010-07-01
188,BAR ROBY,228,"VIA TRAVAI,"" 34",Trento,TN,Territorio Val D'adige,Italia,,46.0644,11.12117,271.0,Bar,,AI-6d,AI-5c,AE-3cf,AE-3abde,AI-6p,AI-6o,AI-6l,AI-6i,AI-6fg,AI-6e,AI-6bc,AI-6ad,AE-1abc,AE-2c,AI-6r,,,,2016-01-05 16:28:42.712,2010-03-17
189,BAR ROSA,216,"VIA PIAVE, 56",Trento,TN,Territorio Val D'adige,Italia,,46.0623,11.12565,207.0,Bar,,AI-6d,AE-3cf,AE-3abde,AI-6p,AI-6i,AI-6fg,AI-6bc,AI-6ad,AE-1abc,AI-6r,,,,,,,,,2013-01-08 16:01:25.522,2010-04-09
190,BAR ROSSINI,2,"VIA SUFFRAGIO, 27",Trento,TN,Territorio Val D'adige,Italia,,46.0714,11.125001,239.0,Bar,,AI-5e,AE-3cf,AI-6l,AI-6i,AI-6fg,AI-6e,AI-6bc,AI-6ad,AE-1abc,AE-2c,AI-6d,AE-3abde,,,,,,,2013-06-06 12:10:41.168,2013-01-04
191,BAR SANTA CHIARA (OSPEDALE S.CHIARA),210,"LARGO MEDAGLIE D'ORO, 1",Trento,TN,Territorio Val D'adige,Italia,,46.0578948,11.1329703,180.0,Bar,,AI-6d,AE-3cf,AE-3abde,AI-6p,AI-6o,AI-6l,AI-6i,AI-6fg,AI-6e,AI-6bc,AI-6ad,AE-1abc,AE-2d,,,,,,2013-01-07 17:03:31.785,2010-04-13
192,BAR SANTA CHIARA,167,"VIA SANTA CROCE, 59",Trento,TN,Territorio Val D'adige,Italia,,46.0636,11.12357,212.0,Bar,,AI-6d,AE-3cf,AE-3abde,AI-6p,AI-6fg,AI-6bc,AI-6ad,AE-1abc,AI-6r,,,,,,,,,,2013-01-07 14:50:20.284,2010-01-29
193,BAR STAZIONE TRENITALIA,270,"PIAZZA DANTE, 1",Trento,TN,Territorio Val D'adige,Italia,,46.07265,11.11985,185.0,Bar,,AE-3cf,AE-3abde,AE-1abc,AE-2d,,,,,,,,,,,,,,,2010-05-21 07:33:10,2010-03-23
194,BAR TN/MALE',269,VIA DOGANA 3,Trento,TN,Territorio Val D'adige,Italia,,46.07318,11.12061,138.0,Bar,,AI-6d,AE-3cf,AE-3abde,AI-6p,AI-6o,AI-6l,AI-6i,AI-6fg,AI-6e,AE-1abc,,,,,,,,,2013-01-11 08:40:42.979,2010-03-23
195,BAR TORINO,220,PIAZZA SILVIO PELLICO 3/2,Trento,TN,Territorio Val D'adige,Italia,,46.071742,11.123912,185.0,Bar,,AI-6d,AE-3cf,AE-3abde,AI-6p,AI-6fg,AI-6bc,AI-6ad,AE-1abc,AE-2c,AI-6r,,,,,,,,,2013-02-04 08:52:10.699,2013-02-01
196,BAR TORRE VANGA,153,"PIAZZA LEONARDO DA VINCI, 1",Trento,TN,Territorio Val D'adige,Italia,,46.069768,11.118202,188.0,Bar,,AI-6d,AE-3abde,AI-6l,AI-6r,AI-6fg,AI-6i,AI-6e,AI-6ad,AE-1abc,AE-3cf,AI-6bc,,,,,,,,2017-11-17 10:37:47.288,2013-01-22
197,BAR TRE PORTONI,170,"VIA S. CROCE, 48",Trento,TN,Territorio Val D'adige,Italia,,46.06388,11.12361,220.0,Bar,,AI-6d,AE-3cf,AE-3abde,AI-6i,AI-6fg,AI-6bc,AI-6ad,AE-1abc,AI-6r,AI-6p,,,,,,,,,2013-01-07 14:59:56.581,2010-02-02
198,BAR VEGAS,305,"Via Bezzecca, 4",Trento,TN,Territorio Val D'adige,Italia,,46.0628609,11.1310403,180.0,Bar,,AI-6d,AE-3cf,AE-3abde,AI-6l,AI-6fg,AI-6e,AI-6bc,AI-6ad,AE-1abc,,,,,,,,,,2010-06-09 06:37:56,2010-05-25
199,BAR ZINZORLA,560,"PIAZZA GENERALE CANTORE, 12",Trento,TN,Territorio Val D'adige,Italia,,46.0774364,11.1197069,200.0,Bar,,AI-6d,AE-3cf,AE-3abde,AI-6p,AI-6bc,AI-6ad,AE-1abc,AE-2c,AI-6fg,AI-6r,,,,,,,,,2016-01-05 16:18:50.303,2010-07-07
200,BARYCENTRO,218,"PIAZZA VENEZIA, 38 (ZONA PORT'AQUILA)",Trento,TN,Territorio Val D'adige,Italia,www.gruppospes.it,46.06981,11.12748,198.0,Bar,Librerie,AI-6d,AI-5c,AE-3cf,AE-3abde,AI-6p,AI-6l,AI-6i,AI-6fg,AI-6e,AI-6bc,AI-6ad,AE-1abc,AI-6r,,,,,,2013-12-03 11:00:29.121,2013-01-15
201,BENETTI,1071,"VIA DEGLI ORTI, 7",Trento,TN,Territorio Val D'adige,Italia,,46.0657,11.1216,0.0,Riparazione Autovetture,,AE-2d,AE-3cf,AE-3abde,,,,,,,,,,,,,,,,2013-03-11 15:39:21.05,2010-09-13
202,BEST WESTERN QUID HOTEL,810,"VIA INNSBRUCK, 11",Trento,TN,Territorio Val D'adige,Italia,www.quidhoteltrento.com,46.1018531,11.1013046,200.0,Alberghi / Hotel,Ristoranti,AI-6d,AI-5fb,AI-5fa,AI-5f,AE-3cf,AE-3abde,AI-6o,AI-6l,AI-6i,AI-6fg,AI-6e,AE-1abc,AI-8i,AI-8efg,AI-8efga,AI-8o,AI-8n,AI-8m,2016-03-17 12:29:29.595,2010-08-24
203,BIBLIOTECA COMUNALE DI TRENTO,91,"VIA ROMA, 55",Trento,TN,Territorio Val D'adige,Italia,www.bibcom.trento.it,46.0696,11.12073,248.0,Biblioteche,,AI-6d,AI-5fb,AI-5fa,AI-5f,AI-5c,AE-3cf,AI-6p,AI-6o,AI-6l,AI-6i,AI-6fg,AI-6e,AE-1abc,AE-3abde,,,,,2019-05-03 11:41:04.19,2016-05-03
204,BIBLIOTECA DEL MUSEO TRIDENTINO DI SCIENZE NATURALI,512,"VIA CALEPINA, 10",Trento,TN,Territorio Val D'adige,Italia,www.mtsn.it/biblioteca,46.0669458,11.13087,200.0,Associazioni,,AE-3cf,AE-3abde,AE-1abc,AE-2d,,,,,,,,,,,,,,,2011-04-06 14:54:21,2010-07-26
205,BIBLIOTECA DELL'ISTITUTO REGIONALE DI STUDI E RICERCA SOCIALE,530,"PIAZZA  SANTA MARIA MAGGIORE, 7",Trento,TN,Territorio Val D'adige,Italia,www.irsrs.tn.it,46.068675,11.119205,200.0,Biblioteche,,AI-6d,AE-3cf,AE-3abde,AI-6p,AI-6o,AI-6l,AI-6i,AI-6fg,AI-6e,AE-2d,AE-2b,AE-1abc,AI-6ad,AI-6bc,AE-2g,AE-2gb,AE-2ga,AE-2a,2013-01-23 10:01:14.784,2013-01-21
206,BIBLIOTECA DELLA GIUNTA PROVINCIALE DI TRENTO,514,"VIA ROMAGNOSI,"" 9 - C/O CENTRO EUROPA",Trento,TN,Territorio Val D'adige,Italia,www.provincia.tn.it,46.0732112,11.128254,200.0,Uffici Pubblici,Biblioteche,AI-6d,AE-3cf,AE-3abde,AI-6p,AI-6o,AI-6l,AI-6i,AI-6fg,AI-6e,,,,,,,,,,2013-01-24 16:19:50.46,2010-07-26
207,BIBLIOTECA DELLA MONTAGNA - PALAZZO SARACINI CRESSERI,390,"Via Manci, 57",Trento,TN,Territorio Val D'adige,Italia,www.sat.tn.it,46.0699422,11.1232717,200.0,Biblioteche,,AI-6d,AE-3abde,AI-6r,AI-5f,AI-5fb,AI-5fa,AI-5c,AI-6p,AI-6l,AI-6i,AI-6e,AE-1abc,AE-2a,AI-6fg,AE-3cf,,,,2016-05-05 11:03:51.718,2016-05-03
208,BIBLIOTECA SULLE AUTONOMIE E MINORANZE LINGUISTICHE,511,"VIA GAZZOLETTI, 2",Trento,TN,Territorio Val D'adige,Italia,www.regione.taa.it,46.071857,11.121855,200.0,Biblioteche,,AI-6d,AE-3cf,AI-6p,AI-6l,AI-6fg,AI-6e,AE-1abc,AE-2b,AI-6i,AE-2a,AI-6r,AE-3abde,,,,,,,2013-02-01 14:25:26.439,2013-02-01
209,BIBLIOTECA UNIVERSITARIA CENTRALE - EX PALAZZO CAVAZZANI,623,"VIA VERDI, 8",Trento,TN,Territorio Val D'adige,Italia,www.portale.unitn.it/biblioteca,46.0663801,11.1160111,200.0,Biblioteche,,AI-6d,AE-3cf,AE-3abde,AI-6p,AI-6o,AI-6l,AI-6i,AI-6fg,AI-6e,AI-6bc,AI-6ad,AE-1abc,,,,,,,2014-01-29 14:36:11.549,2013-12-12
210,BIG CENTER,575,"VIA DEGASPERI, 1/17",Trento,TN,Territorio Val D'adige,Italia,,46.0495288,11.1223165,200.0,Attivita commerciali,,AE-3cf,AE-3abde,AE-2gb,AE-2ga,AE-2g,,,,,,,,,,,,,,2011-04-08 11:06:38,2010-07-08
211,BLOCKBUSTER ITALIA SPA,776,"VIA DEL BRENNERO, 16",Trento,TN,Territorio Val D'adige,Italia,www.blockbuster.it,46.0922662,11.1158929,200.0,Librerie,,AE-3cf,AE-3abde,AE-1abc,,,,,,,,,,,,,,,,2011-05-27 14:23:11,2010-07-14
212,BLUE BAR,214,"VIA PAOLO ORSI, 7",Trento,TN,Territorio Val D'adige,Italia,,46.0572436,11.1320535,183.0,Bar,,AI-6d,AE-3cf,AE-3abde,AI-6p,AI-6l,AI-6i,AI-6fg,AI-6e,AI-6bc,AI-6ad,AE-1abc,AE-2d,AI-6r,,,,,,2016-01-11 15:53:52.288,2010-04-13
213,BNL - BANCA NAZIONALE DEL LAVORO,183,"CORSO TRE NOVEMBRE, 21",Trento,TN,Territorio Val D'adige,Italia,,46.06168,11.12444,193.0,Bancomat,,AE-4h,AE-1abc,,,,,,,,,,,,,,,,,2010-12-21 09:44:44,2010-02-03
214,BOTTEGA DEL CAFFE' DERSUT,20,"VIA DELLE ORFANE, 5",Trento,TN,Territorio Val D'adige,Italia,www.dersut.it,46.069291,11.120042,230.0,Bar,,AI-6d,AE-3cf,AE-3abde,AI-6fg,AI-6bc,AI-6ad,AE-1abc,AI-6r,AI-5b,,,,,,,,,,2013-06-06 15:27:20.523,2013-02-01
215,BOUGANVILLE,572,"VIA PETRARCA,"" 1/4",Trento,TN,Territorio Val D'adige,Italia,,46.0724524,11.1237509,200.0,Ristoranti,Pizzerie,AI-6d,AI-5c,AE-3cf,AE-3abde,AI-6p,AI-6l,AI-6i,AI-6fg,AI-6e,AE-2c,,,,,,,,,2016-02-09 15:21:17.029,2010-07-07
216,BREN CENTER,721,"VIA TRENER, 16",Trento,TN,Territorio Val D'adige,Italia,,46.0947884,11.1152304,200.0,Attivita commerciali,,AI-6d,AE-3cf,AE-3abde,AI-6o,AI-6l,AI-6i,AI-6fg,AI-6e,,,,,,,,,,,2011-05-25 13:47:13,2010-07-08
217,BRIGHENTI,342,"VIA SUFFRAGIO, 37",Trento,TN,Territorio Val D'adige,Italia,www.brighenti.eu,46.071208,11.124969,180.0,Ortopedie e Sanitarie,,AE-3cf,AE-3abde,AE-2c,,,,,,,,,,,,,,,,2013-01-11 10:57:09.964,2013-01-11
218,Bar dei Botesei,502,"Via Gorizia, 18",Trento,TN,Territorio Val D'adige,Italia,,46.0589472,11.1309134,200.0,Bar,,AI-6d,AE-3cf,AE-3abde,AI-6fg,AI-6bc,AI-6ad,AE-1abc,AE-2c,,,,,,,,,,,2010-09-21 14:09:33,2010-07-27
219,Bluvacanze Trento,396,"Via XXIV maggio, 2/2",Trento,TN,Territorio Val D'adige,Italia,www.viaggiconchiglia.net,46.0638138,11.1217172,200.0,Agenzie viaggi e Promozione Turistica,,AE-3cf,AE-3abde,AE-1abc,,,,,,,,,,,,,,,,2010-08-23 10:25:22,2010-08-19
220,C.I.R.S. CENTRO PROVINCIALE DI TRENTO - ONLUS,195,"VIA TARAMELLI, 17",Trento,TN,Territorio Val D'adige,Italia,www.cirstn.it,46.06144,11.11837,198.0,Associazioni,,AI-6d,AE-3cf,AE-3abde,AI-6p,AI-6o,AI-6l,AI-6i,AI-6fg,AI-6e,AE-1abc,AE-2a,,,,,,,,2010-03-05 08:55:06,2010-02-16
221,CAFE' CREME,197,"VIA PIAVE, 74",Trento,TN,Territorio Val D'adige,Italia,,46.06243,11.12609,194.0,Bar,,AI-6d,AE-3cf,AE-3abde,AI-6p,AI-6i,AI-6fg,AI-6bc,AI-6ad,AE-2c,AI-6r,AE-1abc,,,,,,,,2016-01-11 16:15:30.21,2010-03-03
222,CAFFE' AL CORSO,179,"CORSO 3 NOVEMBRE, 40",Trento,TN,Territorio Val D'adige,Italia,,46.06192,11.12423,227.0,Bar,,AI-6d,AE-3cf,AE-3abde,AI-6p,AI-6l,AI-6i,AI-6fg,AI-6e,AI-6bc,AI-6ad,AE-1abc,AI-6r,,,,,,,2016-01-11 16:11:31.531,2010-02-03
223,CAFFE' AL TEMPO PERSO,219,"VIA PETRARCA, 32",Trento,TN,Territorio Val D'adige,Italia,,46.072167,11.1234695,167.0,Bar,,AE-3cf,AE-3abde,AI-6p,AI-6i,AI-6fg,AI-6e,AI-6bc,AI-6ad,AE-1abc,AE-2c,AI-6r,AI-6d,,,,,,,2013-01-08 16:07:29.353,2010-03-09
224,CAFFE' DA GIORGIO,217,"VIA ROSMINI, 56",Trento,TN,Territorio Val D'adige,Italia,,46.066278,11.11899,143.0,Bar,,AI-6d,AE-3cf,AE-3abde,AI-6p,AI-6r,AI-6fg,AI-6bc,AI-6ad,AE-1abc,AE-2c,,,,,,,,,2017-11-17 10:38:53.841,2013-01-22
225,CAFFE' EXCELSIOR,26,"VIA S. PIETRO ANG. VIA MANCI, 58",Trento,TN,Territorio Val D'adige,Italia,,46.070058,11.124312,229.0,Bar,,AI-6d,AE-3cf,AE-3abde,AI-6l,AI-6i,AI-6fg,AI-6e,AE-1abc,AE-2c,AI-6r,,,,,,,,,2016-01-11 16:31:20.476,2013-01-25
226,CAFFE' LATTE,89,"VIA MANCI, 20",Trento,TN,Territorio Val D'adige,Italia,,46.069777,11.122238,200.0,Pizzerie,Bar,AI-6d,AI-6r,AI-6p,AI-5c,AE-3cf,AI-6fg,AE-1abc,AE-3abde,,,,,,,,,,,2016-01-11 16:46:28.558,2013-01-23
227,CAFFE' MANZONI,1079,"VIA MANZONI, 19",Trento,TN,Territorio Val D'adige,Italia,,46.073376,11.125052,0.0,Bar,,AI-6d,AI-6r,AI-6fg,AI-6p,AE-3cf,AE-3abde,,,,,,,,,,,,,2013-03-13 16:44:56.067,2013-03-13
228,CAFFE' PIAZZA LODRON,33,"PIAZZA LODRON, 21",Trento,TN,Territorio Val D'adige,Italia,,46.06809,11.12339,251.0,Ristoranti,Bar,AE-3abde,AI-6bc,AE-2d,AI-6i,AI-6fg,AI-6e,AE-3cf,AI-6d,AI-6ad,,,,,,,,,,2016-01-11 16:56:44.428,2009-11-03
229,CAFFE' PORTICI,96,"PIAZZA DUOMO, 10",Trento,TN,Territorio Val D'adige,Italia,,46.06769,11.12099,210.0,Bar,,AI-6d,AI-5b,AE-3cf,AE-3abde,AI-6i,AI-6fg,AI-6bc,AI-6ad,AE-1abc,AE-2c,AI-6r,,,,,,,,2016-01-11 17:13:54.414,2013-01-16
230,CAFFE' SILVANA,109,"VIA BARTOLOMEO DA TRENTO, 6",Trento,TN,Territorio Val D'adige,Italia,,46.07615,11.12451,185.0,Bar,,AI-6d,AE-3cf,AI-6fg,AI-6bc,AI-6ad,AE-1abc,AE-2d,AE-3abde,AI-6i,,,,,,,,,,2016-01-12 09:11:59.368,2009-10-06
231,CAFFE' TRIDENTE,85,PIAZZA DUOMO,Trento,TN,Territorio Val D'adige,Italia,,46.06748,11.12137,225.0,Bar,,AI-6d,AE-3cf,AE-3abde,AI-6l,AI-6i,AI-6fg,AI-6e,AI-6bc,AI-6ad,AE-1abc,AE-2d,AI-6r,,,,,,,2016-01-12 09:19:48.2,2013-01-16
232,CAFFE' VENEZIA,166,"LARGO PORTA NUOVA, 11",Trento,TN,Territorio Val D'adige,Italia,,46.0675111,11.126518,232.0,Bar,,AI-6d,AE-3cf,AE-3abde,AI-6p,AI-6o,AI-6l,AI-6i,AI-6e,AE-1abc,AE-2c,AI-6fg,,,,,,,,2016-01-12 09:25:20.365,2013-01-14
233,CAFFE' VERDI,227,"VIA VERDI, 31/3",Trento,TN,Territorio Val D'adige,Italia,,46.06663,11.11862,220.0,Bar,,AI-6d,AE-3cf,AE-3abde,AI-6p,AI-6l,AI-6fg,AI-6e,AI-6r,AI-6ad,AE-1abc,AI-6bc,,,,,,,,2016-01-12 09:54:35.547,2013-01-23
234,CAFFÉ MOZART,145,"VIA VERDI, 32",Trento,TN,Territorio Val D'adige,Italia,,46.06686,11.12063,195.0,Bar,,AI-6d,AI-5b,AE-3cf,AE-3abde,AI-6fg,AI-6r,AE-1abc,,,,,,,,,,,,2017-11-17 10:40:06.728,2013-01-22
235,CAFFÉ ONDA,714,"VIA LUNELLI, 54 - C/O PALAZZO ONDA",Trento,TN,Territorio Val D'adige,Italia,,46.0921064,11.1173985,200.0,Paninoteche,Bar,AI-6d,AE-3cf,AE-3abde,AI-6i,AI-6fg,AI-6e,AI-6ad,AI-6bc,AE-1abc,AI-6r,AI-6p,AI-6l,,,,,,,2016-01-12 10:08:45.83,2010-08-05
236,CAFFÉ RISTORANTE UNIVERSITA',144,"VIA A. PRATI, 4",Trento,TN,Territorio Val D'adige,Italia,,46.0662,11.1197,241.0,Ristoranti,Bar,AI-6d,AE-3cf,AI-6l,AI-6e,AI-6bc,AI-6ad,AE-1abc,AE-2d,AI-6fg,AI-6r,AE-3abde,,,,,,,,2016-01-12 10:14:30.405,2013-01-31
237,CALZOLERIA DA ALCIDE,416,"VICOLO DELL'ADIGE, 21",Trento,TN,Territorio Val D'adige,Italia,,46.0704475,11.1235552,200.0,Attivita commerciali,,AE-3cf,AE-3abde,AE-1abc,AE-2c,,,,,,,,,,,,,,,2013-01-28 09:49:22.583,2013-01-25
238,"CAMERA DI COMMERCIO, INDUSTRIA, ARTIGIANATO E AGRICOLTURA DI TRENTO",361,"Via Calepina, 13",Trento,TN,Territorio Val D'adige,Italia,www.tn.camcom.it,46.0669328,11.1228213,200.0,Uffici Pubblici,,AI-5fb,AI-5fa,AI-5f,AE-3cf,AE-3abde,AE-1abc,AI-6l,AI-6fg,AI-6p,AI-5c,AI-6e,AI-6d,AI-6r,AE-2d,,,,,2013-01-11 10:19:57.16,2013-01-10
239,CAMPI SPORTIVI c/o RESIDENZA UNIVERSITARIA SANTA MARGHERITA,1313,"VIA SANTA MARGHERITA, 13",Trento,TN,Territorio Val D'adige,Italia,www.operauni.tn.it,46.068298,11.117751,0.0,Impianti Sportivi,,AI-6fg,AE-2b,AE-1abc,AI-6o,AI-6i,AE-3abde,AI-5c,AE-2a,AI-6l,AI-6e,AE-3cf,AI-6p,AI-6d,,,,,,2013-12-09 09:17:47.124,2013-11-29
240,CAMPO ATLETICA LEGGERA - C.O.N.I.,355,"VIA MACCANI, 2",Trento,TN,Territorio Val D'adige,Italia,,46.0801693,11.1171418,200.0,Impianti Sportivi,,AI-5b,AE-1abc,AE-2c,,,,,,,,,,,,,,,,2011-03-21 15:11:24,2010-05-05
241,CANTINE DI TORRE MIRANA - COMUNE DI TRENTO ,151,"VIA BELENZANI, 3",Trento,TN,Territorio Val D'adige,Italia,www.comunetrento.tn.it,46.0695,11.12112,229.0,Uffici Pubblici,Edifici Storici,AI-6d,AI-5fb,AI-5fa,AI-5f,AE-3abde,AI-6l,AI-6i,AI-6fg,AI-6e,AE-1abc,AE-2d,AE-3cf,,,,,,,2013-01-16 17:22:25.499,2013-01-16
242,CAPPELLA OSPEDALE S. CHIARA,211,"LARGO MEDAGLIE D'ORO, 1",Trento,TN,Territorio Val D'adige,Italia,,46.0578948,11.1329703,,Edifici di Culto,,AE-3cf,AE-3abde,AE-1abc,AE-2d,,,,,,,,,,,,,,,2010-04-16 02:31:32,2010-04-13
243,CAPPELLA VANTINI DI PALAZZO THUN - COMUNE DI TRENTO ,745,"VIA BELENZANI, 3",Trento,TN,Territorio Val D'adige,Italia,www.comunetrento.it,46.0689399,11.1213617,200.0,Centri e sale culturali,Musei,AE-3cf,AE-1abc,AI-6o,AI-6l,AI-6i,AI-6fg,AI-6e,AI-6d,AE-2c,AE-3abde,AI-5d,,,,,,,,2018-07-11 13:54:54.595,2010-07-15
244,CARITAS DIOCESANA TRENTO,335,"VIA ENDRICI, 27",Trento,TN,Territorio Val D'adige,Italia,www.webdiocesi.chiesacattolica.it,46.0634724,11.1216852,180.0,Associazioni,,AE-3cf,AE-3abde,AE-1abc,AE-2c,,,,,,,,,,,,,,,2010-06-16 13:31:04,2010-05-18
245,CASA CIVICA DI RIPOSO,576,"VIA SAN GIOVANNI BOSCO, 10",Trento,TN,Territorio Val D'adige,Italia,www.civicatnapsp.it,46.0645971,11.126757,200.0,Strutture Residenziali,,AI-6d,AI-5fb,AI-5fa,AI-5f,AE-3cf,AE-3abde,AI-6p,AI-6o,AI-6l,AI-6i,AI-6fg,AI-6e,AE-1abc,AE-2d,,,,,2011-04-08 13:03:42,2010-07-08
246,CASA DEL CIOCCOLATO,46,"VIA BELENZANI, 21",Trento,TN,Territorio Val D'adige,Italia,,46.06872,11.12109,221.0,Pasticcerie,Dolciumi,AE-3cf,AI-6p,AI-6fg,AI-6r,AI-6i,AI-6d,AE-1abc,AE-2d,AE-3abde,,,,,,,,,,2016-02-01 10:05:22.6,2013-01-23
247,CASA DI CURA VILLA BIANCA,256,VIA PIAVE 78,Trento,TN,Territorio Val D'adige,Italia,wwww.trento1.cardionet.it,46.0625758,11.1262886,190.0,Ospedali,,AI-6d,AI-5fb,AI-5fa,AI-5f,AI-6p,AI-6o,AI-6l,AI-6i,AI-6fg,AI-6e,AI-6bc,AI-6ad,AE-1abc,AE-2gb,AE-2ga,AE-2g,AE-2c,AE-2a,2011-03-11 12:15:43,2010-05-04
248,CASANOVA CAFE',212,"LARGO MEDAGLIE D'ORO, 5",Trento,TN,Territorio Val D'adige,Italia,,46.0579492,11.1325833,180.0,Bar,,AI-6d,AE-3cf,AE-3abde,AI-6p,AI-6i,AI-6fg,AI-6bc,AI-6ad,AE-1abc,AE-2c,AI-6r,,,,,,,,2016-01-12 10:19:57.767,2010-04-13
249,CASSA RURALE ALTO GARDA filiale TRENTO,1416,"VIA FRATELLI PERINI, 33/35",Trento,TN,Territorio Val D'adige,Italia,www.cr-altogarda.net,46.05989,11.119452,200.0,Bancomat,Banca,AE-3abde,AE-2b,AE-2a,AE-1abc,AE-3cf,AE-4h,,,,,,,,,,,,,2018-01-22 15:33:36.136,2017-11-15
250,CASSA RURALE DELLA VALLE DEI LAGHI,190,"VIA PERINI, 35",Trento,TN,Territorio Val D'adige,Italia,www.cr-vallelaghi.net,46.05998,11.11998,192.0,Bancomat,,AE-4h,AE-3cf,AE-3abde,AE-1abc,AE-2d,,,,,,,,,,,,,,2013-01-07 16:02:11.124,2010-02-09
251,CASSA RURALE DI ALDENO E CADINE (esterno),259,VIA VERDI 19,Trento,TN,Territorio Val D'adige,Italia,,46.0665898,11.1176884,200.0,Bancomat,,AE-4h,AE-1abc,AE-2c,,,,,,,,,,,,,,,,2013-01-23 11:17:54.032,2013-01-22
252,CASSA RURALE DI ALDENO E CADINE (interno),260,VIA VERDI 19,Trento,TN,Territorio Val D'adige,Italia,,46.0665858,11.1176884,190.0,Bancomat,,AE-4h,AE-3cf,AE-3abde,AE-1abc,AE-2c,,,,,,,,,,,,,,2013-01-23 11:20:47.914,2013-01-22
253,CASSA RURALE DI ALDENO E CADINE,373,"Via Brennero, 256/A",Trento,TN,Territorio Val D'adige,Italia,,46.0922438,11.1153302,200.0,Bancomat,,AE-4h,AE-2a,,,,,,,,,,,,,,,,,2010-12-21 09:51:35,2010-08-04
254,CASSA RURALE DI ALDENO E CADINE,68,"VIA GALILEI, 11",Trento,TN,Territorio Val D'adige,Italia,,46.06771,11.12578,195.0,Bancomat,,AE-4h,AE-1abc,,,,,,,,,,,,,,,,,2010-12-21 09:52:20,2009-11-02
255,CASSA RURALE DI TRENTO ,301,"VIA GRAZIOLI, 38",Trento,TN,Territorio Val D'adige,Italia,,46.0668257,11.1293616,180.0,Bancomat,,AE-1abc,AE-2c,,,,,,,,,,,,,,,,,2010-06-08 12:50:43,2010-05-25
256,CASSA RURALE DI TRENTO ,372,"Via Brennero, 320 c/o TOP CENTER",Trento,TN,Territorio Val D'adige,Italia,,46.0920846,11.1153921,200.0,Bancomat,,AE-4h,,,,,,,,,,,,,,,,,,2010-12-21 10:20:44,2010-08-04
257,CASSA RURALE DI TRENTO,1319,"PIAZZA OVENO, 13 FRAZ. SOPRAMONTE",Trento,TN,Territorio Val D'adige,Italia,www.cassaruraleditrento.it,46.070709,11.058723,0.0,Bancomat,Banca,AE-3abde,AE-2b,AE-2a,AE-2d,AE-3cf,AE-4h,,,,,,,,,,,,,2013-12-09 10:31:19.327,2013-12-04
258,CASSA RURALE DI TRENTO,1323,STRADA DI VASON LOCALITA' VASON,Trento,TN,Territorio Val D'adige,Italia,http://www.cassaruraleditrento.it,46.03893,11.05684,0.0,Bancomat,,AE-4h,,,,,,,,,,,,,,,,,,2013-12-09 10:34:34.024,2013-12-04
259,CASSA RURALE DI TRENTO,173,VIA S. CROCE,Trento,TN,Territorio Val D'adige,Italia,,46.06476,11.12324,195.0,Bancomat,,AE-4h,AE-1abc,,,,,,,,,,,,,,,,,2010-12-21 09:59:31,2010-02-02
260,CASSA RURALE DI TRENTO,206,LARGO MEDAGLIE D'ORO,Trento,TN,Territorio Val D'adige,Italia,,46.0577265,11.1327659,180.0,Bancomat,,AI-5eb,AE-4h,AE-1abc,AE-2fa,AE-2f,AE-2c,,,,,,,,,,,,,2011-03-11 12:04:50,2010-04-13
261,CASSA RURALE DI TRENTO,233,"VIA DEGASPERI, 6",Trento,TN,Territorio Val D'adige,Italia,,46.0494448,11.1227919,190.0,Bancomat,,AE-4h,AE-1abc,,,,,,,,,,,,,,,,,2010-12-21 10:04:38,2010-04-29
262,CASSA RURALE DI TRENTO,254,VIA GIOVANELLI 11,Trento,TN,Territorio Val D'adige,Italia,,46.0655235,11.1318642,190.0,Bancomat,,AE-4h,AE-1abc,AE-2c,,,,,,,,,,,,,,,,2010-12-21 09:55:02,2010-04-27
263,CASSA RURALE DI TRENTO,325,"VIA GANDHI, 10",Trento,TN,Territorio Val D'adige,Italia,,46.0514496,11.1240989,180.0,Bancomat,,AE-4h,AE-1abc,AE-2c,,,,,,,,,,,,,,,,2010-12-21 10:09:22,2010-05-17
264,CASSA RURALE DI TRENTO,388,"Piazza Ezio Mosna, 19",Trento,TN,Territorio Val D'adige,Italia,,46.067082,11.115096,200.0,Bancomat,,AE-4h,AE-1abc,,,,,,,,,,,,,,,,,2010-12-21 10:21:27,2010-04-21
265,CASSA RURALE DI TRENTO,65,"VIA MANCI, 85",Trento,TN,Territorio Val D'adige,Italia,,46.07005,11.12419,222.0,Bancomat,,AE-4h,AE-1abc,,,,,,,,,,,,,,,,,2010-12-21 09:55:46,2009-10-30
266,CASSA RURALE DI TRENTO,79,"VIA BELENZANI, 4",Trento,TN,Territorio Val D'adige,Italia,,46.06956,11.1211,190.0,Bancomat,,AE-4h,AE-1abc,,,,,,,,,,,,,,,,,2010-12-21 09:58:00,2009-11-26
267,CASSA RURALE PINETANA FORNACE E SEREGNANO,196,"VIA PIAVE, 20",Trento,TN,Territorio Val D'adige,Italia,,46.06221,11.12468,218.0,Bancomat,,AE-4h,AE-1abc,,,,,,,,,,,,,,,,,2010-12-21 10:22:07,2010-03-03
268,CASTELLO DEL BUONCONSIGLIO,137,"VIA BERNARDO CLESIO, 5",Trento,TN,Territorio Val D'adige,Italia,www.buonconsiglio.it,46.07181,11.12611,204.0,Edifici Storici,,AI-6d,AI-5fb,AI-5fa,AE-3abde,AI-6o,AI-6p,AI-6i,AE-2d,AE-1abc,AI-5f,AI-6fg,AE-3cf,AI-6e,AI-6l,,,,,2018-05-24 14:57:53.191,2018-03-05
269,CATTEDRALE DI SAN VIGILIO - DUOMO,114,PIAZZA DUOMO,Trento,TN,Territorio Val D'adige,Italia,,46.067412,11.121297,260.0,Edifici di Culto,,AE-3cf,AE-1abc,AE-2d,AE-3abde,,,,,,,,,,,,,,,2017-11-15 16:46:46.471,2013-01-16
270,CENTRO ALLOGGI A.T.S.M.,578,"VIA SUFFRAGIO, 53",Trento,TN,Territorio Val D'adige,Italia,www.atsm-cfm.org,46.071042,11.124637,200.0,Strutture Residenziali,,AI-5fb,AE-3cf,AE-3abde,AI-6o,AI-6l,AI-6fg,AI-6d,AI-5fa,AE-1abc,AI-6i,AI-5f,AE-2a,AI-6e,AI-6p,,,,,2013-01-07 14:04:17.325,2013-01-04
271,CENTRO ANTIVIOLENZA,334,"VIA DOGANA, 1",Trento,TN,Territorio Val D'adige,Italia,www.centroantiviolenzatn.it,46.0734942,11.1209013,180.0,Associazioni,,AI-5fb,AI-5fa,AI-5f,AE-3cf,AE-3abde,AE-1abc,AE-2c,AE-2a,,,,,,,,,,,2010-06-16 13:18:38,2010-05-14
272,CENTRO BERNARDO CLESIO,634,"VIA BARBACOVI, 4",Trento,TN,Territorio Val D'adige,Italia,,46.0654969,11.1258503,200.0,Centri e sale culturali,,AI-6d,AE-3cf,AE-3abde,AI-6p,AI-6o,AI-6i,AI-6fg,AI-6bc,AI-6ad,AE-1abc,AE-2c,AE-2a,,,,,,,2013-01-15 10:26:08.918,2013-01-14
273,CENTRO CONGRESSI PANORAMA,531,"STRADA DELLA FUNIVIA, 66",Trento,TN,Territorio Val D'adige,Italia,www.operauni.tn.it,46.0660794,11.099928,420.0,Centri e sale culturali,,AI-6d,AI-5fb,AI-5fa,AI-5f,AE-3cf,AE-3abde,AI-6p,AI-6o,AI-6l,AI-6i,AI-6fg,AI-6e,AE-2d,,,,,,2011-04-07 15:17:00,2010-07-26
274,CENTRO DI DOCUMENTAZIONE EUROPEA - PAT,513,"VIA ROMAGNOSI,"" 9 - C/O CENTRO EUROPA",Trento,TN,Territorio Val D'adige,Italia,www.cde.provincia.tn.it,46.0732112,11.1218254,200.0,Uffici Pubblici,,AI-6d,AE-3cf,AE-3abde,AI-6p,AI-6o,AI-6l,AI-6i,AI-6fg,AI-6e,,,,,,,,,,2011-04-06 15:25:58,2010-07-23
275,CENTRO DI RICERCA E TUTELA DEI CONSUMATORI E DEGLI UTENTI,223,"VIA PETRARCA, 32",Trento,TN,Territorio Val D'adige,Italia,www.centroconsumatori.tn.it,46.072167,11.1234695,200.0,Uffici Pubblici,,AE-3cf,AE-3abde,AE-1abc,,,,,,,,,,,,,,,,2010-04-19 03:56:10,2010-03-09
276,CENTRO GOMMA,429,"PIAZZA MOSTRA, 27",Trento,TN,Territorio Val D'adige,Italia,,46.0716641,11.125949,200.0,Riparazione Autovetture,,AE-3cf,,,,,,,,,,,,,,,,,,2010-12-22 10:20:39,2010-08-23
277,CENTRO ORTOPEDICO TRENTINO,343,"VIA MILANO, 41",Trento,TN,Territorio Val D'adige,Italia,,46.0625822,11.1302147,180.0,Ortopedie e Sanitarie,,AE-3cf,AE-3abde,AE-1abc,AE-2c,,,,,,,,,,,,,,,2010-06-17 13:25:42,2010-05-25
278,CENTRO PER L'IMPIEGO,706,"VIA MACCANI, 80",Trento,TN,Territorio Val D'adige,Italia,www.agenziadellavoro.tn.it,46.0841476,11.115201,200.0,Uffici Pubblici,,AI-6d,AE-3cf,AE-3abde,AI-6fg,AE-1abc,AE-2a,AI-6r,,,,,,,,,,,,2013-01-15 19:45:40.682,2010-08-06
279,CENTRO PER LA FORMAZIONE ALLA SOLIDARIETA' INTERNAZIONALE - EX CONVENTO AGOSTINIANI,645,"VIA SAN MARCO, 1",Trento,TN,Territorio Val D'adige,Italia,www.tcic.eu,46.0697855,11.1255673,200.0,Uffici Pubblici,Centri e sale culturali,AE-3cf,AE-1abc,AE-2a,AI-6fg,AI-6bc,AI-6r,AI-6p,AI-6d,AI-6ad,AE-3abde,,,,,,,,,2017-05-04 11:53:57.595,2013-01-25
280,CENTRO RISORSE INTEGRAZIONE AREA BISOGNI EDUCATIVI SPECIALI,624,"VIA TOMMASO GAR, 10",Trento,TN,Territorio Val D'adige,Italia,www.vivoscuola.it,46.0687101,11.1168629,200.0,Uffici Pubblici,,AI-6d,AE-3cf,AE-3abde,AI-6p,AI-6o,AI-6l,AI-6i,AI-6fg,AI-6e,AE-1abc,AE-2a,,,,,,,,2011-04-12 14:32:45,2010-08-09
281,CENTRO SERVIZI CGIL DEL TRENTINO,655,"VIA GIUSTI, 49",Trento,TN,Territorio Val D'adige,Italia,www.cgil.tn.it,46.0585815,11.1186475,200.0,Uffici Pubblici,,AE-3cf,AE-3abde,AE-1abc,AE-2d,AE-2a,,,,,,,,,,,,,,2011-05-23 08:19:28,2010-07-01
282,CENTRO SERVIZIO ANZIANI,62,"VIA BELENZANI, 49",Trento,TN,Territorio Val D'adige,Italia,,46.067981,11.121538,214.0,Centri Sociali,,AI-6d,AI-5d,AE-3cf,AE-3abde,AI-6p,AI-6l,AI-6i,AI-6fg,AI-6e,AI-6bc,AI-6ad,AE-1abc,AI-6r,,,,,,2013-01-17 11:23:37.067,2013-01-15
283,CENTRO SPORTIVO A.T.A. BATTISTI,354,"VIA FERSINA, 21 LOC. GHIAIE",Trento,TN,Territorio Val D'adige,Italia,www.tennis.atatrento.it,46.045539,11.121093,190.0,Impianti Sportivi,,AI-6d,AE-3cf,AE-3abde,AI-6l,AI-6fg,AI-6e,AE-2d,,,,,,,,,,,,2013-01-11 09:07:17.256,2010-05-05
284,CENTRO SPORTIVO ITALIANO,353,"VIA TOMMASO GAR, 8",Trento,TN,Territorio Val D'adige,Italia,,46.0691212,11.1169756,200.0,Uffici Pubblici,,AE-3cf,AE-3abde,AE-1abc,,,,,,,,,,,,,,,,2014-03-25 15:23:09.501,2010-05-05
285,CENTRO SPORTIVO UNIVERSITA' MATTARELLO,1326,VIA DELLE REGOLE,Trento,TN,Territorio Val D'adige,Italia,www.unisport.tn.it,46.008867,11.134192,0.0,Impianti Sportivi,,AI-6r,AI-6i,AE-3abde,AI-6l,AI-6fg,AI-6e,AE-3cf,AI-6d,,,,,,,,,,,2017-11-15 16:49:29.785,2014-01-20
286,CENTRO VOLO A VELA CUS,1328,"VIA LIDORNO, 3",Trento,TN,Territorio Val D'adige,Italia,www.voloavela.tn.it,46.017767277216855,11.126183867454529,0.0,Impianti Sportivi,,AI-6r,AI-6bc,AI-6fg,AI-5b,AI-6d,AI-6ad,,,,,,,,,,,,,2017-11-15 16:51:30.815,2014-02-18
287,CHE BANCA - GRUPPO MEDIOBANCA,186,"VIA PERINI, 175",Trento,TN,Territorio Val D'adige,Italia,www.chebanca.it,46.06078,11.1241,222.0,Bancomat,,AE-3cf,AE-3abde,AE-4h,AE-1abc,AE-2d,,,,,,,,,,,,,,2013-01-07 15:43:07.468,2010-02-09
288,CHIESA CRISTO RE,263,PIAZZA DEL CONCILIO,Trento,TN,Territorio Val D'adige,Italia,,46.0772637,11.1174907,180.0,Edifici di Culto,,AI-5b,AE-3cf,AE-3abde,AE-1abc,AE-2d,,,,,,,,,,,,,,2011-03-21 09:59:51,2010-04-22
289,CHIESA DEL SACRO CUORE,587,"VIALE VERONA, 143",Trento,TN,Territorio Val D'adige,Italia,,46.0533334,11.1297435,200.0,Edifici di Culto,,AI-5c,AE-3cf,AE-3abde,,,,,,,,,,,,,,,,2011-04-08 14:15:25,2010-05-17
290,CHIESA DELL'ANNUNZIATA,63,"VIA BELENZANI, 55",Trento,TN,Territorio Val D'adige,Italia,,46.067877,11.121613,214.0,Edifici di Culto,,AE-3cf,AE-3abde,AE-1abc,,,,,,,,,,,,,,,,2013-01-17 12:04:41.103,2013-01-16
291,CHIESA DI SAN CARLO BORROMEO,319,"VIA M. GANDHI, 7",Trento,TN,Territorio Val D'adige,Italia,,46.0667123,11.1190591,180.0,Edifici di Culto,,AI-5b,AE-3cf,AE-3abde,AE-1abc,AE-2d,,,,,,,,,,,,,,2011-03-21 15:01:58,2010-05-17
292,CHIESA DI SAN FRANCESCO SAVERIO,135,"VIA ROMA, 57",Trento,TN,Territorio Val D'adige,Italia,,46.06961,11.12096,241.0,Edifici di Culto,,AE-3cf,AE-1abc,AE-3abde,,,,,,,,,,,,,,,,2014-01-28 16:51:00.509,2013-01-23
293,CHIESA DI SAN GIUSEPPE,316,"VIA VITTORIO VENETO, 18",Trento,TN,Territorio Val D'adige,Italia,,46.0578373,11.1196797,180.0,Edifici di Culto,,AI-5b,AE-3cf,AE-3abde,AE-1abc,,,,,,,,,,,,,,,2011-03-21 10:09:33,2010-05-17
294,CHIESA DI SAN MARCO,98,"VICOLO SAN MARCO, 3",Trento,TN,Territorio Val D'adige,Italia,,46.06998,11.12537,156.0,Edifici di Culto,,AE-3cf,AE-3abde,AE-1abc,AE-2d,,,,,,,,,,,,,,,2013-01-28 10:02:36.421,2013-01-25
295,CHIESA DI SAN MARTINO,108,"VIA BRENNERO, 22",Trento,TN,Territorio Val D'adige,Italia,,46.0762,11.12445,190.0,Edifici di Culto,,AI-5b,AE-3cf,AE-3abde,AE-1abc,AE-2d,,,,,,,,,,,,,,2017-11-15 16:39:03.694,2009-10-06
296,CHIESA DI SAN PIETRO,160,VIA SAN PIETRO,Trento,TN,Territorio Val D'adige,Italia,,46.069486,11.124551,216.0,Edifici di Culto,,AI-5b,AE-3cf,AE-3abde,AE-1abc,,,,,,,,,,,,,,,2013-01-07 12:18:47.962,2013-01-04
297,CHIESA DI SAN PIO X,588,"VIA SAN PIO X, 34",Trento,TN,Territorio Val D'adige,Italia,,46.0528135,11.1208073,200.0,Edifici di Culto,,AI-5b,AE-3cf,AE-3abde,,,,,,,,,,,,,,,,2011-04-08 14:28:49,2010-05-17
298,CHIESA DI SANT'ANTONIO,318,"VIA BOLGHERA, 40",Trento,TN,Territorio Val D'adige,Italia,,46.0583969,11.1306109,180.0,Edifici di Culto,,AI-5b,AE-3cf,AE-3abde,AE-1abc,AE-2d,,,,,,,,,,,,,,2011-03-21 15:00:32,2010-05-17
299,CHIESA S. CHIARA,178,"VIA S. CROCE, 65",Trento,TN,Territorio Val D'adige,Italia,,46.0634,11.12323,103.0,Edifici di Culto,,AI-5b,AE-1abc,,,,,,,,,,,,,,,,,2010-05-13 08:50:32,2010-02-03
300,CHIESA SPOSALIZIO DI MARIA VERGINE - BERTONIANI,303,"VIA SAN BERNARDINO, 8",Trento,TN,Territorio Val D'adige,Italia,,46.0642915,11.1285536,180.0,Edifici di Culto,,AI-5b,AE-3cf,AE-3abde,AE-1abc,AE-2c,,,,,,,,,,,,,,2011-03-21 10:07:43,2010-05-14
301,CHIESA SS. SACRAMENTO,171,VIA S. CROCE,Trento,TN,Territorio Val D'adige,Italia,,46.06234,11.12381,221.0,Edifici di Culto,,AE-3cf,AE-3abde,AE-1abc,AE-2d,AE-2c,,,,,,,,,,,,,,2017-11-17 10:41:09.842,2010-02-02
302,CHIESA VASON,1320,STRADA DI VASON LOCALITA' VASON,Trento,TN,Territorio Val D'adige,Italia,,46.03907,11.057573,0.0,Edifici di Culto,,AE-3abde,AE-3cf,,,,,,,,,,,,,,,,,2017-11-17 10:42:09.134,2013-12-04
303,CIGL DEL TRENTINO,662,"VIA DEI MUREDEI, 8",Trento,TN,Territorio Val D'adige,Italia,www.cigl.tn.it,46.0568666,11.1181927,200.0,Uffici Pubblici,,AI-6d,AI-5c,AE-3cf,AE-3abde,AI-6o,AI-6l,AI-6i,AI-6fg,AI-6e,AE-1abc,,,,,,,,,2011-05-23 09:18:34,2010-07-13
304,CIMA PNEUMATICI,565,"VIA PETRARCA, 1/A",Trento,TN,Territorio Val D'adige,Italia,,46.0724524,11.1237509,200.0,Riparazione Autovetture,,,,,,,,,,,,,,,,,,,,2011-04-08 09:16:19,2010-07-07
305,CINEMA ASTRA,121,"CORSO BUONAROTTI, 16",Trento,TN,Territorio Val D'adige,Italia,www.cineworld.info,46.0756123,11.1191714,0.0,Cinema,,AI-6d,AI-5fb,AI-5fa,AI-5f,AE-3cf,AI-6l,AI-6i,AI-6fg,AI-6e,AE-1abc,AE-3abde,,,,,,,,2018-07-11 15:41:30.145,2016-11-02
306,CINEMA MULTISALA MODENA,124,"VIA S. FRANCESCO D'ASSISI, 8/A",Trento,TN,Territorio Val D'adige,Italia,www.cineworldtrento.it,46.066963,11.12624,230.0,Cinema,,AI-6d,AE-3cf,AI-6l,AI-6r,AI-6i,AI-6fg,AI-6e,AE-1abc,AE-3abde,AE-2d,AI-6p,,,,,,,,2017-05-04 10:37:48.764,2016-05-03
307,CINEMA NUOVO ROMA,122,"CORSO TRE NOVEMBRE, 35",Trento,TN,Territorio Val D'adige,Italia,www.cineworld.info,46.0614124,11.1247703,250.0,Cinema,,AI-6d,AE-3cf,AE-3abde,AI-6i,AI-6e,AE-1abc,AI-6l,AI-6fg,,,,,,,,,,,2013-01-07 11:52:24.235,2009-12-10
308,CINEMA VITTORIA,123,"VIA MANCI,"" 54",Trento,TN,Territorio Val D'adige,Italia,www.cineworld.info,46.07001,11.12414,131.0,Cinema,,AI-6d,AI-5b,AE-3cf,AE-3abde,AI-6i,AI-6fg,AI-6e,AE-1abc,AI-6l,AI-6p,AE-2c,AI-6o,,,,,,,2015-05-11 11:06:22.792,2013-02-01
309,CINFORMI,619,"VIA ZAMBRA, 11",Trento,TN,Territorio Val D'adige,Italia,www.cinformi.it,46.091365,11.1172002,200.0,Uffici Pubblici,,AI-6d,AI-5fb,AI-5fa,AI-5f,AE-3cf,AI-6p,AI-6o,AI-6l,AI-6i,AI-6fg,AI-6e,AI-6bc,AI-6ad,AE-1abc,AE-2d,AE-3abde,,,2017-11-17 10:43:10.746,2010-06-24
310,CIRCOSCRIZIONE MONTE BONDONE,1317,"VIA DI REVOLTA, 4 FRAZ. SOPRAMONTE",Trento,TN,Territorio Val D'adige,Italia,www.comune.trento.it,46.071896,11.059871,0.0,Uffici Pubblici,,AI-6fg,AI-5fa,AI-6r,AI-6bc,AE-2b,AE-1abc,AI-6i,AE-3abde,AI-5f,AE-2a,AE-3cf,AI-6d,AI-6ad,,,,,,2013-12-04 16:15:46.744,2013-12-04
311,COMANDO PROVINCIALE CARABINIERI DI TRENTO,357,"Via Barbacovi, 24",Trento,TN,Territorio Val D'adige,Italia,www.carabinieri.it,46.0648741,11.1282018,200.0,Carabinieri - Guardia di Finanza - Polizia - Polizia Municipale - Vigili del Fuoco,,AI-6d,AI-5fa,AI-5f,AE-3abde,AI-6l,AI-6i,AI-6e,AE-1abc,AE-2a,AI-6fg,,,,,,,,,2013-02-07 08:41:45.954,2013-02-01
312,COMMISSARIATO DEL GOVERNO PER LA PROVINCIA DI TRENTO,669,"VIA PIAVE, 1",Trento,TN,Territorio Val D'adige,Italia,www.prefettura.it/trento,46.0621724,11.1250495,200.0,Uffici Giudiziari,Uffici Pubblici,AI-6d,AI-5fb,AI-5fa,AI-5f,AE-3cf,AE-3abde,AI-6o,AI-6l,AI-6i,AI-6fg,AI-6e,AI-6bc,AI-6ad,AE-1abc,AE-2d,,,,2011-05-23 12:17:26,2010-07-13
313,COMPRENSORIO DELLA VALLE DELL'ADIGE,656,"VIA ZAMBRA, 11",Trento,TN,Territorio Val D'adige,Italia,www.comprensorioc5.tn.it,46.091365,11.1172002,200.0,Uffici Pubblici,,AI-6d,AI-5fb,AI-5fa,AI-5f,AE-3cf,AE-3abde,AI-6fg,AI-6bc,AI-6ad,AE-1abc,AI-6p,AI-6r,,,,,,,2013-01-18 09:07:58.746,2010-06-24
314,CONFESERCENTI DEL TRENTINO,708,"VIA MACCANI, 207",Trento,TN,Territorio Val D'adige,Italia,www.confesercenti.it,46.093154,11.1062525,200.0,Uffici Pubblici,,AI-6d,AE-3abde,AI-6o,AI-6i,AI-6fg,AI-6ad,AE-2gb,AE-2ga,AE-2g,AI-6bc,AE-3cf,,,,,,,,2013-01-15 19:41:00.399,2010-08-06
315,CONSIGLIERA DI PARITA',786,"VIA JACOPO ACONCIO, 5",Trento,TN,Territorio Val D'adige,Italia,www.pariopportunita.provincia.tn.it,46.0746387,11.1221533,200.0,Uffici Pubblici,,AI-6d,AE-3cf,AE-3abde,AI-6o,AI-6l,AI-6i,AI-6fg,AI-6e,AI-6bc,AI-6ad,AE-1abc,,,,,,,,2013-02-04 10:19:36.636,2010-08-11
316,CONSIGLIO REGIONALE - SALA DI RAPPRESENTANZA,638,"PIAZZA DANTE, 16",Trento,TN,Territorio Val D'adige,Italia,www.consiglio.regione.taa.it,46.072283,11.1207961,200.0,Uffici Pubblici,,AI-6d,AI-5fb,AI-5fa,AI-5f,AE-3cf,AE-3abde,AI-6p,AI-6l,AI-6i,AI-6fg,AI-6e,AE-1abc,AI-6bc,AI-6r,AI-6ad,,,,2017-05-05 10:02:51.207,2010-07-26
317,"CONSULTORIO DI TRENTO PER IL SINGOLO, LA COPPIA E LA FAMIGLIA",253,"VIA MALTA, 12",Trento,TN,Territorio Val D'adige,Italia,www.apss.tn.it,46.0620141,11.1277653,190.0,Ambulatori Medici,,AI-6d,AE-3cf,AE-3abde,AI-6p,AI-6o,AI-6l,AI-6i,AI-6fg,AI-6e,AE-1abc,AE-2d,AE-2a,,,,,,,2010-05-12 01:07:28,2010-04-27
318,COOPERATIVA ARIANNA,356,"Via S. Francesco D'Assisi, 10",Trento,TN,Territorio Val D'adige,Italia,www.arianna.coop,46.066536,11.1260075,200.0,Cooperative e Laboratori Sociali,,AI-6d,AE-3abde,AI-6p,AI-6o,AI-6l,AI-6i,AI-6fg,AI-6e,AE-1abc,,,,,,,,,,2013-01-15 10:32:42.997,2013-01-14
319,"COOPERATIVA F.A.I. (FAMIGLIA, ANZIANI, INFANZIA)",782,"VIA GRAMSCI, 48/A - 50/A",Trento,TN,Territorio Val D'adige,Italia,www.faicoop.com,46.0533996,11.1257565,200.0,Cooperative e Laboratori Sociali,,AE-3cf,AE-3abde,AE-1abc,,,,,,,,,,,,,,,,2011-05-30 08:03:48,2010-07-13
320,COORDINAMENTO CIRCOLI PENSIONATI ED ANZIANI DELLA PROVINCIA DI TRENTO,1500,"VIA SIGHELE, 5",Trento,TN,Territorio Val D'adige,Italia,www.circolitn.altervista.org,46.060606,11.123717,200.0,Associazioni,,AE-2b,AE-1abc,AE-3abde,AE-2a,AI-5fa,AI-5fb,AI-5c,AI-5f,AE-3cf,,,,,,,,,,2019-06-25 12:22:14.104,2019-06-10
321,CORNER CAFFE' BAR BIANCO,21,"VIA SAN GIOVANNI, 34",Trento,TN,Territorio Val D'adige,Italia,,46.068995,11.119038,235.0,Bar,,AI-6d,AE-3cf,AE-3abde,AI-6l,AI-6i,AI-6fg,AI-6e,AI-6ad,AI-6bc,AE-1abc,AI-6r,,,,,,,,2013-06-27 10:21:15.696,2013-01-21
322,CREDEM,202,"VIA GAZZOLETTI, 35",Trento,TN,Territorio Val D'adige,Italia,,46.07184,11.1223,224.0,Bancomat,,AE-4h,AE-1abc,AE-2c,,,,,,,,,,,,,,,,2013-02-01 14:44:54.667,2010-02-24
323,CREDITO VALTELLINESE ,188,"VIA PERINI, 24 (AGENZIA 2)",Trento,TN,Territorio Val D'adige,Italia,,46.0601,11.12311,247.0,Bancomat,,AE-4h,AE-3cf,AE-3abde,AE-1abc,AE-2d,,,,,,,,,,,,,,2010-12-21 10:38:39,2010-02-09
324,CREDITO VALTELLINESE,45,"VIA DORDI, 5",Trento,TN,Territorio Val D'adige,Italia,,46.06725,11.12228,130.0,Bancomat,,AE-4h,AE-1abc,,,,,,,,,,,,,,,,,2010-12-21 10:37:45,2009-11-12
325,Centro Servizi Volontariato Trentino,410,"Piazzetta Leonardo da Vinci, 2",Trento,TN,Territorio Val D'adige,Italia,www.volontariatotrentino.it,46.069822,11.118041,200.0,Associazioni,,AI-6d,AI-5fb,AI-5fa,AI-5f,AE-3cf,AE-3abde,AI-6fg,AE-1abc,AE-2d,AI-6r,AE-2a,,,,,,,,2013-01-21 13:58:58.308,2013-01-21
326,Centro Teatro Ragazzi ,283,"Viale degli Olmi, 26",Trento,TN,Territorio Val D'adige,Italia,,46.0499184,11.1328933,180.0,Teatri e Auditorium,,AI-6d,AI-5b,AE-3cf,AE-3abde,AI-6l,AI-6i,AI-6fg,AI-6e,AE-2d,AE-2c,,,,,,,,,2011-03-21 10:05:11,2010-05-17
327,Comando Provinciale Vigili del Fuoco,358,"Via Secondo da Trento, 2",Trento,TN,Territorio Val D'adige,Italia,www.vvftrento.it,46.0766559,11.1227336,200.0,Carabinieri - Guardia di Finanza - Polizia - Polizia Municipale - Vigili del Fuoco,,AI-5fb,AI-5fa,AI-5f,AE-3cf,AE-3abde,AE-1abc,AE-2c,,,,,,,,,,,,2010-08-03 13:44:35,2010-06-30
328,DA GUIDO - OSTERIA CON CUCINA,737,PARCO SAN MARCO,Trento,TN,Territorio Val D'adige,Italia,www.osteriadaguido.com,46.070343,11.125889,200.0,Osterie / Trattorie,Ristoranti,AI-6d,AE-3cf,AE-3abde,AI-6fg,AE-1abc,AE-2c,AE-2a,AI-6p,AI-6r,,,,,,,,,,2013-01-31 10:30:39.694,2013-01-30
329,DEMATTÉ FRUTTA E VERDURA,583,"PIAZZA DUOMO, 38-39",Trento,TN,Territorio Val D'adige,Italia,,46.067685,11.120857,200.0,Frutta e Verdura,,AE-3cf,AE-3abde,AE-1abc,AE-2d,,,,,,,,,,,,,,,2013-01-17 12:50:56.965,2013-01-16
330,DIPARTIMENTO AFFARI RELAZIONI ISTITUZIONALI,639,"PIAZZA DANTE, 15",Trento,TN,Territorio Val D'adige,Italia,www.provincia.tn.it,46.072283,11.1207961,200.0,Uffici Pubblici,,AI-6d,AI-5fb,AI-5fa,AI-5f,AE-3cf,AE-3abde,AI-6p,AI-6o,AI-6l,AI-6i,AI-6fg,AI-6e,AE-1abc,,,,,,2017-11-29 15:07:53.702,2010-06-30
331,DIPARTIMENTO AGRICOLTURA E ALIMENTAZIONE,683,"VIA TRENER, 3",Trento,TN,Territorio Val D'adige,Italia,wwww.provincia.tn.it,46.0948131,11.1152147,200.0,Uffici Pubblici,,AI-6d,AI-5fb,AI-5fa,AI-5f,AE-3cf,AE-3abde,AI-6o,AI-6l,AI-6i,AI-6fg,AI-6e,AE-1abc,AE-2d,,,,,,2011-05-23 14:35:31,2010-07-16
332,DIPARTIMENTO DI ECONOMIA E MANAGEMENT,120,"VIA INAMA, 1",Trento,TN,Territorio Val D'adige,Italia,www.unitn.it/economia,46.0664636,11.1174824,240.0,Scuole e universita,,AI-6d,AI-5fa,AI-5f,AE-3cf,AI-6l,AI-6fg,AI-6e,AE-1abc,AE-4h,AI-5fb,AI-6o,AE-3abde,AI-6bc,AI-6i,AI-6p,AI-6ad,,,2017-11-15 16:53:43.804,2016-05-03
333,DIPARTIMENTO DI LETTERE E FILOSOFIA,1056,"VIA TOMMASO GAR, 14",Trento,TN,Territorio Val D'adige,Italia,www.unitn.it/lettere,46.067363,11.117236,0.0,Scuole e universita,,AI-5fb,AI-6fg,AI-5fa,AE-1abc,AE-3abde,AI-6o,AI-6i,AI-5f,AI-6l,AI-6e,AE-3cf,AI-6d,AI-6p,,,,,,2014-05-20 09:26:45.761,2012-11-06
334,DIPARTIMENTO DI SOCIOLOGIA E RICERCA SOCIALE,115,"VIA VERDI, 26",Trento,TN,Territorio Val D'adige,Italia,www.sociologia.unitn.it,46.066625,11.119334,230.0,Scuole e universita,,AI-6d,AI-5f,AE-3cf,AE-3abde,AI-6l,AI-6i,AI-6fg,AI-6e,AE-1abc,AE-2d,AE-2b,AE-2a,AI-5fb,AI-5fa,AI-6bc,AI-6r,AI-6ad,AI-6p,2017-05-04 11:41:12.259,2016-05-03
335,"DIPARTIMENTO INDUSTRIA, ARTIGIANATO E MINIERE",684,"VIA TRENER, 3",Trento,TN,Territorio Val D'adige,Italia,wwww.provincia.tn.it,46.0948131,11.1152147,200.0,Uffici Pubblici,,AI-6d,AI-5fb,AI-5fa,AI-5f,AE-3cf,AE-3abde,AI-6o,AI-6l,AI-6i,AI-6fg,AI-6e,AE-1abc,AE-2d,,,,,,2011-05-23 14:43:04,2010-07-16
336,DIPARTIMENTO ISTRUZIONE,784,"VIA GILLI, 3",Trento,TN,Territorio Val D'adige,Italia,wwww.provincia.tn.it,46.0906082,11.1192757,200.0,Uffici Pubblici,,AI-6d,AI-5fb,AI-5fa,AI-5f,AE-3cf,AE-3abde,AI-6o,AI-6l,AI-6i,AI-6fg,AI-6e,AI-6bc,AI-6ad,AE-1abc,AE-2d,,,,2011-05-30 12:22:18,2010-06-18
337,DIPARTIMENTO POLITICHE SANITARIE,676,"VIA GILLI, 4 C/O CENTRO NORD EST",Trento,TN,Territorio Val D'adige,Italia,wwww.provincia.tn.it,46.0906942,11.118853,200.0,Uffici Pubblici,,AI-6d,AI-5fb,AI-5fa,AI-5f,AE-3cf,AE-3abde,AI-6o,AI-6l,AI-6i,AI-6e,AI-6bc,AE-1abc,AE-2d,AE-2a,,,,,2011-05-23 13:12:58,2010-06-09
338,DIPARTIMENTO POLITICHE SOCIALI E DEL LAVORO,785,"VIA GILLI, 4 C/O CENTRO NORD EST",Trento,TN,Territorio Val D'adige,Italia,wwww.provincia.tn.it,46.0906742,11.118853,200.0,Uffici Pubblici,,AI-6d,AI-5fb,AI-5fa,AI-5f,AE-3cf,AE-3abde,AI-6o,AI-6l,AI-6i,AI-6fg,AI-6e,AE-1abc,AE-2d,AE-2a,,,,,2011-05-30 12:40:54,2010-06-18
339,DIPARTIMENTO PROTEZIONE CIVILE E INFRASTRUTTURE,692,"VIA VANNETTI, 41",Trento,TN,Territorio Val D'adige,Italia,wwww.provincia.tn.it,46.072511,11.121801,200.0,Uffici Pubblici,,AI-6d,AI-5fb,AI-5fa,AI-5f,AE-3cf,AE-3abde,AI-6i,AI-6fg,AE-2d,AE-2a,AI-6r,AI-6p,AI-6ad,AE-1abc,AI-6bc,,,,2013-03-05 09:47:42.211,2013-03-04
340,DIPARTIMENTO RISORSE FORESTALI E MONTANE,685,"VIA TRENER, 3",Trento,TN,Territorio Val D'adige,Italia,wwww.provincia.tn.it,46.0948131,11.1152147,200.0,Uffici Pubblici,,AI-6d,AI-5fb,AI-5fa,AI-5f,AE-3cf,AE-3abde,AI-6o,AI-6l,AI-6i,AI-6fg,AI-6e,,,,,,,,2011-05-23 14:50:35,2010-07-16
341,"DIPARTIMENTO TURISMO, COMMERCIO, PROMOZIONE E INTERNAZIONALIZZAZIONE",665,"VIA ROMAGNOSI,"" 9 - C/O CENTRO EUROPA",Trento,TN,Territorio Val D'adige,Italia,www.provincia.tn.it,46.0732112,11.1218254,200.0,Uffici Pubblici,,AI-6d,AE-3cf,AE-3abde,AI-6o,AI-6l,AI-6i,AI-6fg,AI-6e,AI-6ad,AE-2g,AE-2gb,AE-2ga,AE-2d,AE-2a,AI-6bc,,,,2017-11-17 10:44:23.159,2010-07-23
342,DIPARTIMENTO URBANISTICA E AMBIENTE,640,"VIA VANNETTI, 32",Trento,TN,Territorio Val D'adige,Italia,www.provincia.tn.it,46.0721708,11.1215888,200.0,Uffici Pubblici,,AI-6d,AI-5fb,AI-5fa,AI-5f,AE-3cf,AE-3abde,AI-6p,AI-6o,AI-6l,AI-6i,AI-6fg,AI-6e,AI-6bc,AI-6ad,AE-1abc,AE-2d,AE-2a,,2011-05-10 10:12:42,2010-07-23
343,DOC ,490,"Via Milano, 148",Trento,TN,Territorio Val D'adige,Italia,www.doctrento.it,46.0637814,11.1310344,200.0,Ristoranti,Pizzerie,AI-6d,AI-5fb,AI-5fa,AI-5f,AE-3cf,AE-3abde,AI-6p,AI-6o,AI-6l,AI-6i,AI-6fg,AI-6e,AI-6bc,AI-6ad,AE-1abc,,,,2016-02-09 15:50:52.999,2010-07-14
344,DOCTOR GLASS,612,"VIA DEL BRENNERO, 140",Trento,TN,Territorio Val D'adige,Italia,,46.0923744,11.1156126,200.0,Riparazione Autovetture,,AE-3cf,AE-3abde,AE-2d,,,,,,,,,,,,,,,,2011-04-12 13:19:05,2010-08-06
345,DOLOMITI GOMME SRL,616,"VIALE VERONA, 190/24",Trento,TN,Territorio Val D'adige,Italia,www.dolomitigomme.com,46.0466647,11.1304653,200.0,Riparazione Autovetture,,,,,,,,,,,,,,,,,,,,2011-04-12 13:42:51,2010-08-09
346,DORIGATTI AUTO SNC,427,"VIA BOLGHERA, 59",Trento,TN,Territorio Val D'adige,Italia,,46.0580451,11.1320798,200.0,Riparazione Autovetture,,AE-3cf,AE-3abde,AE-1abc,AE-2c,,,,,,,,,,,,,,,2010-09-02 10:27:13,2010-08-23
347,DRINKING TEAM,712,"VIA PRANZELORES, 46",Trento,TN,Territorio Val D'adige,Italia,,46.087412,11.1197527,200.0,Paninoteche,Bar,AI-6d,AE-3cf,AE-3abde,AI-6o,AI-6l,AI-6i,AI-6bc,AI-6ad,AI-6e,AI-6r,AI-6fg,,,,,,,,2016-02-02 16:20:03.201,2010-08-04
348,DUE GIGANTI,736,"VIA DEL SIMONINO, 14",Trento,TN,Territorio Val D'adige,Italia,,46.068622,11.123828,200.0,Ristoranti,Self Service,AE-3abde,AI-6fg,AE-3cf,AI-6d,AI-6r,AI-6p,,,,,,,,,,,,,2013-02-27 16:37:56.777,2013-01-11
349,DUOMO 34 CAFE',80,PIAZZA DUOMO,Trento,TN,Territorio Val D'adige,Italia,,46.067549,11.120827,229.0,Bar,,AI-6d,AI-5d,AE-3cf,AI-6fg,AE-1abc,AI-6r,AE-3abde,,,,,,,,,,,,2016-01-12 10:35:18.732,2013-01-16
350,EIS CENTER,517,"VIA DEL BRENNERO, 30",Trento,TN,Territorio Val D'adige,Italia,,46.1842743,11.1239215,200.0,Gelaterie,,AE-3cf,AE-3abde,AE-1abc,AE-2d,,,,,,,,,,,,,,,2011-04-06 17:35:14,2010-07-14
351,ELISA,798,"VIALE ROVERETO, 17",Trento,TN,Territorio Val D'adige,Italia,www.bbelisa.com,46.0595906,11.127682,200.0,Bed & Breakfast,,AE-3cf,AE-3abde,AE-1abc,AE-2c,AI-8a,AI-8h,AI-8p,AI-8n,AI-8i,AI-8cd,AI-7a,AI-7bcdef,AE-2a,,,,,,2016-03-17 10:21:38.222,2010-09-03
352,ENOTECA DEL CORSO,605,"CORSO 3 NOVEMBRE, 64",Trento,TN,Territorio Val D'adige,Italia,,46.0614452,11.1242711,200.0,Enoteche,,AE-3cf,AE-3abde,AE-2d,,,,,,,,,,,,,,,,2016-01-29 10:39:34.346,2010-06-28
353,ENTE NAZIONALE SORDOMUTI ,332,"VIA SAN BERNARDINO, 4",Trento,TN,Territorio Val D'adige,Italia,www.enstrento.it,46.0643716,11.1281215,180.0,Associazioni,,AE-3cf,AE-3abde,AE-1abc,AE-2c,AE-2a,,,,,,,,,,,,,,2010-06-16 13:04:42,2010-05-20
354,ERBORISTERIA ARNICA,383,"Via degli Orti, 29",Trento,TN,Territorio Val D'adige,Italia,,46.0654506,11.1230189,200.0,Erboristerie,,AE-3cf,AE-3abde,AE-2a,,,,,,,,,,,,,,,,2013-01-31 12:08:37.784,2013-01-30
355,ERBORISTERIA DROGHERIA SANTONI,384,"Via Mazzini, 37",Trento,TN,Territorio Val D'adige,Italia,,46.0657695,11.1229396,200.0,Erboristerie,,AE-3cf,AE-3abde,,,,,,,,,,,,,,,,,2013-01-10 11:06:07.599,2013-01-09
356,ERBORISTERIA SERENA - COSMESI NATURALE,718,"VIA TRENER, 16 - C/O BREN CENTER",Trento,TN,Territorio Val D'adige,Italia,,46.0958196,11.118455,200.0,Erboristerie,,AE-3cf,AE-3abde,,,,,,,,,,,,,,,,,2011-05-25 13:11:52,2010-08-05
357,ERBORISTERIA SPAZIO VERDE,606,"CORSO 3 NOVEMBRE, 54",Trento,TN,Territorio Val D'adige,Italia,,46.0609564,11.124796,200.0,Erboristerie,,AE-3cf,AE-3abde,AE-2d,,,,,,,,,,,,,,,,2011-04-12 10:09:38,2010-06-28
358,ERBORISTERIA STARBENE,770,"VIA 24 MAGGIO, 4",Trento,TN,Territorio Val D'adige,Italia,,46.0638891,11.1216995,200.0,Erboristerie,,AE-3cf,AE-3abde,AE-1abc,AE-2c,,,,,,,,,,,,,,,2011-05-27 13:44:40,2010-06-29
359,EUROBRICO,418,"VIA DEL BRENNERO, 151",Trento,TN,Territorio Val D'adige,Italia,www.eurobrico.com,46.0916669,11.1145103,200.0,Attivita commerciali,,AE-3cf,AE-3abde,,,,,,,,,,,,,,,,,2010-09-02 08:47:29,2010-08-23
360,EUROP ASSISTANCE,731,PIAZZA LEONARDO DA VINCI,Trento,TN,Territorio Val D'adige,Italia,www.trapasso.eu,46.069825,11.117735,200.0,Riparazione Autovetture,,AE-3cf,AE-3abde,AE-1abc,AE-2c,,,,,,,,,,,,,,,2013-01-21 14:23:48.691,2013-01-21
361,EUROPCAR,403,"Vai Torre Vanga,18",Trento,TN,Territorio Val D'adige,Italia,,46.0701274,11.1196209,200.0,Autonoleggi,,AE-3cf,,,,,,,,,,,,,,,,,,2010-12-22 10:16:28,2010-08-16
362,EXTASY PUB CAFFÉ,568,"VIA PETRARCA,"" 1/2",Trento,TN,Territorio Val D'adige,Italia,,46.0724524,11.1237509,200.0,Bar,,AI-6d,AE-3cf,AE-3abde,AI-6l,AI-6i,AI-6fg,AI-6e,AI-6bc,AE-2d,AI-6r,AI-6ad,,,,,,,,2016-01-12 10:47:35.704,2010-07-07
363,Erboristeria Non solo Erbe,371,"Via Brennero, 320 c/o TOP CENTER",Trento,TN,Territorio Val D'adige,Italia,,46.0920846,11.1153921,200.0,Erboristerie,,AE-3cf,AE-3abde,,,,,,,,,,,,,,,,,2010-08-05 12:42:36,2010-08-04
364,Estuario onlus - Associazione per il sostegno e l'auto mutuo aiuto nel disagio psichico,330,"Via Sighele, 9",Trento,TN,Territorio Val D'adige,Italia,www.estuario.it,46.060217,11.123794,180.0,Associazioni,,AI-6d,AE-3cf,AE-3abde,AI-6r,AE-2b,AI-6i,AI-6l,AI-6p,AI-6fg,AI-6e,AE-1abc,AE-2a,,,,,,,2019-06-24 12:18:49.605,2010-05-20
365,FACOLTA' DI GIURISPRUDENZA,119,"VIA VERDI, 53",Trento,TN,Territorio Val D'adige,Italia,www.unitn.it/giurisprudenza,46.0659623,11.119198,250.0,Scuole e universita,,AI-6d,AI-5fa,AI-5f,AE-3cf,AE-3abde,AI-6l,AI-6i,AI-6e,AE-1abc,AE-2b,AE-2a,AI-5fb,AI-6o,AI-6bc,AI-6p,AI-6ad,AI-6fg,,2018-05-24 14:59:41.858,2016-05-03
366,FARMACIA  AI SOLTERI,716,"VIA LUNELLI, 40 - C/O PALAZZO ONDA",Trento,TN,Territorio Val D'adige,Italia,,46.0921908,11.1177383,200.0,Farmacie,,AE-3cf,AE-3abde,AE-1abc,,,,,,,,,,,,,,,,2011-05-25 13:02:48,2010-08-05
367,FARMACIA ALLA MADONNA,87,"VIA MANCI, 42",Trento,TN,Territorio Val D'adige,Italia,,46.069866,11.123148,172.0,Farmacie,,AE-3cf,AE-3abde,AE-1abc,AE-2c,,,,,,,,,,,,,,,2013-01-28 09:31:28.793,2013-01-25
368,FARMACIA BOLGHERA,207,"LARGO MEDAGLIE D'ORO, 8",Trento,TN,Territorio Val D'adige,Italia,www.farmaciabolghera.it,46.0578948,11.1329703,200.0,Farmacie,,AE-3abde,AE-1abc,AE-2d,AE-2a,AE-3cf,,,,,,,,,,,,,,2013-01-07 16:37:50.633,2010-04-13
369,FARMACIA COMUNALE 3,853,"VIA BRIONE, 23",Trento,TN,Territorio Val D'adige,Italia,,45.9034233,11.0428456,200.0,Farmacie,,AE-3cf,AE-3abde,AE-1abc,AE-2d,AE-2a,,,,,,,,,,,,,,2011-06-08 13:00:01,2010-11-15
370,FARMACIA COMUNALE CLARINA,596,"VIA DEGASPERI, 92/1",Trento,TN,Territorio Val D'adige,Italia,,46.0500962,11.1242938,200.0,Farmacie,,AE-3cf,AE-3abde,,,,,,,,,,,,,,,,,2011-04-08 15:01:57,2010-05-17
371,FARMACIA COMUNALE PIEDICASTELLO,322,VIA BRESCIA 19/A,Trento,TN,Territorio Val D'adige,Italia,,46.0706406,11.1119991,180.0,Farmacie,,AE-3cf,AE-3abde,AE-1abc,,,,,,,,,,,,,,,,2010-08-05 14:31:24,2010-04-22
372,FARMACIA COMUNALE PIO X,315,"VIA SAN PIO X, 77",Trento,TN,Territorio Val D'adige,Italia,,46.0539723,11.1208247,180.0,Farmacie,,AE-3cf,AE-3abde,AE-2d,,,,,,,,,,,,,,,,2017-11-17 10:45:29.519,2010-05-17
373,FARMACIA COMUNALE SAN CAMILLO,255,VIA GIOVANELLI 5,Trento,TN,Territorio Val D'adige,Italia,www.farcomtrento.com,46.0656591,11.1319573,195.0,Farmacie,,AE-3cf,AE-3abde,AE-1abc,AE-2d,AE-2a,,,,,,,,,,,,,,2013-01-10 21:21:06.703,2010-04-27
374,FARMACIA COMUNALE SAN GIUSEPPE,261,"VIA VITTORIO VENETO, 39",Trento,TN,Territorio Val D'adige,Italia,www.farcomtrento.com,46.0582467,11.1215535,190.0,Farmacie,,AE-3cf,AE-3abde,AE-2d,AE-2a,AE-1abc,,,,,,,,,,,,,,2013-01-10 21:26:18.818,2010-04-22
375,FARMACIA DALL'ARMI,40,"PIAZZA DUOMO, 10",Trento,TN,Territorio Val D'adige,Italia,,46.06765,11.12186,162.0,Farmacie,,AE-3cf,AE-3abde,AE-1abc,AE-2d,,,,,,,,,,,,,,,2013-06-06 17:01:46.726,2013-01-15
376,FARMACIA DE GERLONI,1316,"STRADA SPINEDA,16 FRAZ. SOPRAMONTE",Trento,TN,Territorio Val D'adige,Italia,,46.073063,11.058525,0.0,Farmacie,,AE-2d,AE-3cf,AE-3abde,,,,,,,,,,,,,,,,2013-12-05 15:06:32.492,2013-12-04
377,FARMACIA GALLO,61,"VIA MANTOVA, 51",Trento,TN,Territorio Val D'adige,Italia,,46.067449,11.124129,186.0,Farmacie,,AE-3cf,AE-3abde,AE-1abc,AE-2c,,,,,,,,,,,,,,,2013-01-07 14:21:57.371,2013-01-04
378,FARMACIA GRANDI,104,"VIA MANZONI, 7/A",Trento,TN,Territorio Val D'adige,Italia,,46.0743348,11.1249288,216.0,Farmacie,,AE-3abde,AE-3cf,AE-1abc,AE-2b,AE-2a,,,,,,,,,,,,,,2010-01-15 01:57:22,2009-10-05
379,FARMACIA S. CHIARA,168,"VIA S. CROCE, 57",Trento,TN,Territorio Val D'adige,Italia,,46.06365,11.12345,224.0,Farmacie,,AI-5c,AE-3cf,AE-3abde,AE-1abc,AE-2a,,,,,,,,,,,,,,2010-04-13 23:56:36,2010-01-29
380,FARMACIA SAN BARTOLOMEO,595,"VIALE VERONA, 92",Trento,TN,Territorio Val D'adige,Italia,,46.0539798,11.1291017,200.0,Farmacie,,AE-3cf,AE-3abde,AE-2a,,,,,,,,,,,,,,,,2011-04-08 14:57:54,2010-05-17
381,FARMACIA SAN LORENZO,262,VIA FONTANA 29,Trento,TN,Territorio Val D'adige,Italia,,46.076957,11.119139,180.0,Farmacie,,AE-3cf,AE-3abde,AE-1abc,AE-2d,,,,,,,,,,,,,,,2010-11-16 09:42:36,2010-04-22
382,FARMACIA SANTONI,71,"PIAZZA PASI, 20",Trento,TN,Territorio Val D'adige,Italia,,46.06789,11.12227,230.0,Farmacie,,AE-3cf,AE-3abde,AE-1abc,AE-2d,AE-2b,AE-2c,AE-2a,,,,,,,,,,,,2013-01-14 11:11:18.56,2009-11-11
383,FEDERAZIONE TRENTINA DELLA COOPERAZIONE,125,"VIA SEGANTINI, 10",Trento,TN,Territorio Val D'adige,Italia,www.ftcoop.it,46.0750032,11.122061,150.0,Uffici Pubblici,,AI-6d,AE-3cf,AE-3abde,AI-6l,AI-6i,AI-6fg,AI-6e,AE-1abc,,,,,,,,,,,2013-01-07 11:55:51.635,2009-12-10
384,FERSINA VIAGGI,426,"VIA MARSALA, 13",Trento,TN,Territorio Val D'adige,Italia,www.fersinaviaggi.it,46.0580601,11.1265041,200.0,Agenzie viaggi e Promozione Turistica,,AE-3cf,AE-3abde,AE-1abc,AE-2c,,,,,,,,,,,,,,,2010-09-02 09:52:38,2010-08-23
385,FIAB TRENTO - FEDERAZIONE ITALIANA AMICI DELLA BICICLETTA,510,"Via al Torrione, 6",Trento,TN,Territorio Val D'adige,Italia,www.fiab-trento.it,46.065148,11.122281,200.0,Associazioni,,AI-6d,AE-3cf,AE-3abde,AI-6p,AE-1abc,AE-2d,AI-6fg,AI-5fb,AI-5fa,AI-6r,AI-6bc,AE-2b,AI-6i,AI-5f,AI-6l,AI-6e,AI-6ad,AE-2a,2019-06-04 13:09:06.185,2010-07-27
386,FIORERIA DA ALDO,1077,"PIAZZA SANTA MARIA MAGGIORE, 30",Trento,TN,Territorio Val D'adige,Italia,,46.06845,11.11903,0.0,Attivita commerciali,,AE-3abde,AE-2d,AE-3cf,,,,,,,,,,,,,,,,2013-03-11 15:43:24.353,2010-09-13
387,FIORERIA FLORIS,1076,"VIA ROSMINI, 67",Trento,TN,Territorio Val D'adige,Italia,,46.063984,11.119706,0.0,Attivita commerciali,,AE-3abde,AE-3cf,,,,,,,,,,,,,,,,,2013-03-11 15:42:42.885,2010-09-13
388,FLAMBARD,629,"VIA DEGLI OLMI, 4",Trento,TN,Territorio Val D'adige,Italia,,46.0499886,11.1314937,200.0,Bar,,AI-6d,AE-3cf,AE-3abde,AI-6p,AI-6l,AI-6i,AI-6fg,AI-6e,AI-6bc,AI-6ad,AE-2d,AI-6r,,,,,,,2016-01-12 10:59:23.624,2010-06-30
389,FLORART,1075,"LARGO CARDUCCI, 10",Trento,TN,Territorio Val D'adige,Italia,,46.06832,11.12421,0.0,Attivita commerciali,,AE-3abde,AI-5b,AE-3cf,,,,,,,,,,,,,,,,2013-03-11 15:42:04.429,2010-09-13
390,FONDAZIONE BRUNO KESSLER - SALA CONFERENZE,127,"VIA SANTA CROCE, 77",Trento,TN,Territorio Val D'adige,Italia,www.fbk.eu,46.0638997,11.1234869,230.0,Centri e sale culturali,Uffici Pubblici,AI-6d,AI-5c,AE-3abde,AI-6l,AI-6i,AI-6fg,AI-6e,AE-2b,AE-2a,AE-1abc,AE-3cf,AI-6p,AI-6o,AI-6ad,AI-6bc,AE-2d,,,2013-05-02 17:15:21.562,2013-04-29
391,FONDAZIONE FRANCO DEMARCHI,22,"PIAZZA SANTA MARIA MAGGIORE, 7",Trento,TN,Territorio Val D'adige,Italia,www.fdemarchi.it,46.068675,11.119205,210.0,Associazioni,Scuole e universita,AI-5fb,AI-5f,AI-5c,AE-3cf,AE-3abde,AI-6p,AI-6o,AI-6l,AI-6i,AI-6fg,AI-6e,AI-6bc,AI-6ad,AI-5fa,AE-2b,AE-1abc,AE-2a,AI-6d,2017-11-24 10:24:27.277,2016-05-03
392,FORMAT - CENTRO AUDIOVISIVI,112,VIA ZANELLA 10/2,Trento,TN,Territorio Val D'adige,Italia,www.format.provincia.tn.it,46.0674137,11.118169,0.0,Centri e sale culturali,,AI-6d,AI-5c,AE-3cf,AE-3abde,AI-6l,AI-6i,AI-6fg,AI-6e,AE-1abc,AI-6r,AI-6p,AE-2d,AE-2b,AE-2a,,,,,2013-01-23 10:15:18.373,2013-01-21
393,FORST,34,"VIA OSS MAZZURANA, 35",Trento,TN,Territorio Val D'adige,Italia,www.forst.it,46.06881,11.12259,217.0,Ristoranti,Pizzerie,AI-6d,AE-3abde,AI-6i,AI-6fg,AI-6e,AI-6ad,AE-2c,AI-6bc,AE-3cf,AI-6r,AI-6l,AI-6p,,,,,,,2016-02-09 11:07:17.166,2013-01-15
394,FORTE BUS DE VELA DI CADINE,1515,VIA AL PASIEL,Trento,TN,Territorio Val D'adige,Italia,www.museostorico.it,46.085006,11.070129,0.0,Punti di interesse,Edifici Storici,AE-2c,AI-6fg,AI-6r,AI-6bc,AE-2b,AE-2d,AE-3abde,AE-2a,AI-6l,AI-6e,AE-3cf,AI-6ad,AI-6d,,,,,,2021-01-26 10:14:04.621,2016-08-10
395,FOTO GOTTARDINI OTTICA SRL,558,"VIA SAN PIETRO, 24",Trento,TN,Territorio Val D'adige,Italia,www.gottardini.it,46.069487,11.124545,200.0,Ottica,,AE-3cf,AE-3abde,AE-1abc,AE-2c,AI-5fb,AI-5fa,AI-5f,,,,,,,,,,,,2013-01-10 16:28:01.043,2013-01-10
396,FRIENDS - PIZZERIA KEBAB,380,"Via Prepositura, 8",Trento,TN,Territorio Val D'adige,Italia,,46.069585,11.118261,200.0,Pizzerie,Fast Food,AE-3cf,AE-3abde,AE-1abc,AE-2c,,,,,,,,,,,,,,,2013-01-21 14:29:29.902,2013-01-21
397,FRUTTA E VERDURA DA LINA,585,"VIA GIOVANNI A PRATO, 8",Trento,TN,Territorio Val D'adige,Italia,,46.0620013,11.1261783,200.0,Frutta e Verdura,,AE-3cf,AE-3abde,AE-1abc,,,,,,,,,,,,,,,,2011-04-08 14:06:07,2010-07-14
398,FUNIVIA TRENTO - SARDAGNA stazione a valle,1506,LUNGADIGE MONTE GRAPPA,Trento,TN,Territorio Val D'adige,Italia,www.trentinotrasporti.it,46.069626,11.115644,200.0,Uffici Pubblici,,AE-1abc,AE-3cf,AE-3abde,AE-2e,,,,,,,,,,,,,,,2020-02-11 15:50:50.265,2020-01-30
399,FUNIVIA TRENTO SARDAGNA stazione a monte,1507,STRADA ALLA FUNIVIA,Trento,TN,Territorio Val D'adige,Italia,,46.065978,11.102663,600.0,Uffici Pubblici,,AI-6fg,AI-6r,AE-2d,AE-1abc,AI-6i,AE-3abde,AI-6l,AI-6p,AI-6d,AI-6e,AE-3cf,,,,,,,,2020-02-11 16:21:07.239,2020-01-30
