,has_ID,has_officialName,has_municipality,has_province,has_country,has_website,has_latitude,has_longitude,has_elevation,has_facilityType,has_uploadDate,has_addr:street,has_addr:housenumber,has_accessibleElevator,has_reservedParkinglots,has_guidanceSystem,has_accessibleToilette,has_steps,has_ramp,has_staircaseSlope,has_levelOfAccessibility
0,ab_5350, BAR CHICCO D'ORO,Trento,TN,Italia,,46.0760928,11.1194082,200.0,Bar,2010-07-20,Corso Buonarroti,12/2,False,True,False,False,False,True,Dislivello in percentuale: 11.0; Lunghezza in cm.: 87.0,yes
1,ab_271,IL PAPIRO LIBRI & CAFFE',Trento,TN,Italia,,46.06786,11.12563,241.0,Bar,2013-01-14,Via Galilei,5,False,True,False,False,False,True,Dislivello in percentuale: 16.0; Lunghezza in cm.: 53.0,yes
2,ab_3782,A posto - La tua auto come nuova,Trento,TN,Italia,www.aposto.it,46.0676211,11.1172199,200.0,Riparazione Autovetture,2010-08-09,Via Tommaso Gar,27/2,False,False,False,False,False,False, ,no
3,ab_3813,A.C.I.S.J.F. Associazione Casa Tridentina della Giovane,Trento,TN,Italia,www.acisjftrento.it,46.069067,11.1185694,200.0,Associazioni,2013-01-21,Via Prepositura,58,False,False,False,False,False,True,Dislivello in percentuale: 7.8; Lunghezza in cm.: 1300.0,limited
4,ab_2894,A.D.M.O. Associazione Donatori Midollo Osseo,Trento,TN,Italia,www.admotrentino.it,46.060698,11.1236871,180.0,Associazioni,2010-05-21,Via Sighele,7,False,True,False,False,True,False, ,yes
5,ab_5225,A.E.T. ASSOCIAZIONE EMOFILICI TRENTINI,Trento,TN,Italia,www.associazioneemofilicitrentini.com,46.0579773,11.120349,200.0,Associazioni,2010-07-16,Via Vittorio Veneto,24,False,True,False,False,False,False, ,limited
6,ab_2906,"A.I.D.O. Associazione Italiana per la Donazione di Organi, Tessuti e Cellule",Trento,TN,Italia,www.aido.it/trento,46.060369,11.123736,180.0,Associazioni,2010-05-21,Via Sighele,7,False,True,False,False,False,False, ,limited
7,ab_6217,A.I.S.L.A onlus - Associazione Italiana Sclerosi Laterale Amiotrofica,Trento,TN,Italia,www.asilatrentinoaltoadige.it,46.048666,11.1290636,200.0,Associazioni,2010-08-09,Via Fermi,23/D,False,True,False,False,False,False, ,limited
8,ab_14958,A.I.S.L.A. ASSOCIAZIONE ITALIANA SCLEROSI LATERALE AMIOTROFICA,Trento,TN,Italia,,46.058677,11.121518,200.0,Associazioni,2019-06-10,Via Bronzetti,29,False,True,False,True,False,True,Dislivello in percentuale: 7.0; Lunghezza in cm.: 470.0,yes
9,ab_2889,A.L.I.R. Associazione per la Lotta Insufficienza Respiratoria,Trento,TN,Italia,www.alirtrentino.it,46.065148,11.122281,180.0,Associazioni,2010-05-24,Via Al Torrione,6,False,True,False,True,False,True,Dislivello in percentuale: 10.0; Lunghezza in cm.: 1400.0,yes
10,ab_78010,A.L.P.I.  COOPERATIVA AVVIAMENTO AL LAVORO SU PROGETTI INDIVIDUALIZZATI,Trento,TN,Italia,www.coop-alpi.it,46.0730641,11.1222183,200.0,Cooperative e Laboratori Sociali,2010-07-26,Via Ragazzi Del 99,13,False,False,False,True,False,False, ,no
11,ab_28211,A.M.A. Auto Mutuo Aiuto ,Trento,TN,Italia,www.automutuoaiuto.it,46.0731224,11.1251985,180.0,Associazioni,2010-05-24,Via Torre D'augusto,2/1,False,True,True,False,True,False, ,yes
12,ab_30212,A.N.F.F.A.S. Associazione Nazionale di Famiglie di Persone con Disabilità Intellettiva e Relazionale,Trento,TN,Italia,www.anffas.it,46.0956201,11.1193494,180.0,Associazioni,2010-05-18,Via Trener,8,False,True,False,True,True,False, ,yes
13,ab_29813,A.N.F.I. Associazione Nazionale Finanzieri d'Italia,Trento,TN,Italia,,46.0747587,11.1248963,180.0,Associazioni,2010-05-18,Largo Nazario Sauro,11,False,True,False,False,False,True,Dislivello in percentuale: 8.0; Lunghezza in cm.: 240.0,yes
14,ab_28414,A.N.M.I.C. Associazione Nazionale Mutilati e Invalidi Civili,Trento,TN,Italia,www.anmic-tn.org,46.054135,11.120441,180.0,Associazioni,2010-05-17,Via Orazio Benevoli,22,False,True,False,True,True,False, ,yes
15,ab_28515,A.N.M.I.L. Associazione Nazionale Mutilati e Invalidi del Lavoro ,Trento,TN,Italia,www.anmil.it,46.0528137,11.1208529,180.0,Associazioni,2010-05-25,Via San Pio X,38,False,True,False,True,True,False, ,yes
16,ab_22116,A.P.A.P.I : AGENZIA PROVINCIALE PER L'ASSISTENZA E LA PREVIDENZA INTEGRATIVA - SPORTELLO INFORMATIVO,Trento,TN,Italia,www.apapi.provincia.tn.it,46.071759,11.123917,187.0,Uffici Pubblici,2013-02-04,Piazza Silvio Pellico,8/3,False,True,False,False,False,True,Dislivello in percentuale: 17.5; Lunghezza in cm.: 39.0,yes
17,ab_22217,A.P.A.P.I: AGENZIA PROVINCIALE PER L'ASSISTENZA E LA PREVIDENZA INTEGRATIVA - DIREZIONE,Trento,TN,Italia,www.apapi.provincia.tn.it,46.071759,11.123917,187.0,Uffici Pubblici,2013-02-04,Piazza Silvio Pellico,8,False,True,False,False,True,False, ,yes
18,ab_150918,A.P.C.A.T. Associazione Provinciale dei Club degli Alcolisti in Trattamento - Centro Studi,Trento,TN,Italia,www.apcattrentino-centrostudi.it,46.060178,11.123823,200.0,Associazioni,2019-06-10,Via Sighele,3,False,True,False,True,False,False, ,limited
19,ab_29119,A.P.C.A.T. Associazione Provinciale dei Club degli Alcolisti in Trattamento Centro studi,Trento,TN,Italia,www.apcattrentino-centrostudi.it,46.060178,11.123823,180.0,Associazioni,2010-05-17,Via Sighele,7,False,True,False,True,False,False, ,limited
20,ab_69420,A.R.C.A. ASSOCIAZIONE RICERCA COMPORTAMENTO ALIMENTARE,Trento,TN,Italia,www.arcatrento.wordpress.com,46.058677,11.121518,200.0,Associazioni,2010-07-16,Via Bronzetti,29,False,True,False,True,False,True,Dislivello in percentuale: 7.0; Lunghezza in cm.: 470.0,yes
21,ab_28621,A.R.I.S. Associazione Riabilitazione Inserimento Sociale Famiglie Malati Psichici,Trento,TN,Italia,,46.065148,11.122281,180.0,Associazioni,2010-05-17,Via Al Torrione,6,False,True,False,True,False,True,Dislivello in percentuale: 10.0; Lunghezza in cm.: 1400.0,yes
22,ab_29722,A.T.D. Associazione Trentina Diabetici ,Trento,TN,Italia,,46.065148,11.122281,180.0,Associazioni,2010-05-14,Via Al Torrione,6,False,True,False,True,False,True,Dislivello in percentuale: 10.0; Lunghezza in cm.: 1400.0,yes
23,ab_28723,A.T.M.A.R. Associazione Trentina Malati Reumatici Onlus,Trento,TN,Italia,www.reumaticitrentino.it,46.065148,11.122281,180.0,Associazioni,2010-05-19,Via Al Torrione,6,False,True,False,True,False,True,Dislivello in percentuale: 10.0; Lunghezza in cm.: 1400.0,yes
24,ab_33724,A.U.S.E.R. Associazione per Autogestione dei Servizi e la Solidarietà,Trento,TN,Italia,www.auser.it,46.0579773,11.1203449,180.0,Associazioni,2010-05-25,Via Vittorio Veneto,24,False,True,False,False,True,False, ,yes
25,ab_33125,A.V.I.S. Associazione Volontari Italiani Sangue,Trento,TN,Italia,www.avistrentino.org,46.060468,11.123765,180.0,Associazioni,2010-05-20,Via Sighele,7,False,True,False,False,False,False, ,limited
26,ab_33626,A.V.U.L.S.S. Associazione Volontariato Unità Locali servizi Socio Sanitari,Trento,TN,Italia,www.avulss.org,46.0634724,11.1216852,180.0,Associazioni,2010-05-25,Via Endrici,27,False,True,False,False,True,False, ,yes
27,ab_80727,ACCADEMIA,Trento,TN,Italia,www.accademiahotel.it,46.06872,11.120272,200.0,Alberghi / Hotel,2013-01-21,Vicolo Colico,4/6,False,True,False,False,False,False, ,limited
28,ab_8228,ACLI SEDE PROVINCIALE,Trento,TN,Italia,www.aclitrentine.it,46.06961,11.12075,257.0,Uffici Pubblici,2013-01-23,Via Roma,57,False,True,False,True,True,False, ,yes
29,ab_42429,ACLI SERVIZI TRENTINO SRL,Trento,TN,Italia,www.acliservizi.it,46.0684675,11.1216115,200.0,Uffici Pubblici,2013-01-15,Galleria Tirrena,10,False,True,False,True,True,False, ,yes
30,ab_69930,ACLI TRENTINE - CIRCOLO SAN GIUSEPPE SAN PIO X,Trento,TN,Italia,,46.0579773,11.1203449,200.0,Associazioni,2010-07-16,Via Veneto,24,False,True,False,False,False,False, ,limited
31,ab_33931,ACUSTICA TRENTINA,Trento,TN,Italia,www.acustica.trentina.com,46.057174,11.1282428,180.0,Farmacie,2010-05-17,Viale Verona,31/2,False,False,False,False,False,True,Dislivello in percentuale: 20.6; Lunghezza in cm.: 85.0,limited
32,ab_52532,ADGT - ASSOCIAZIONE DIABETE GIOVANILE DI TRENTO,Trento,TN,Italia,www.adgt.it,46.058677,11.121518,200.0,Associazioni,2010-07-16,Via Bronzetti,29,False,True,False,True,False,True,Dislivello in percentuale: 7.0; Lunghezza in cm.: 470.0,yes
33,ab_81333,AERHOTEL,Trento,TN,Italia,,46.026922,11.1274653,200.0,Alberghi / Hotel,2010-08-24,Via Lidorno,3,False,False,False,False,False,False, ,no
34,ab_74434,AFFARI FINANZIARI,Trento,TN,Italia,wwww.provincia.tn.it,46.0732112,11.1218254,200.0,Uffici Pubblici,2010-07-23,Via Romagnosi,"""",False,False,False,True,False,True,Dislivello in percentuale: 8.0; Lunghezza in cm.: 1400.0,limited
35,ab_70735,AFTER PUB,Trento,TN,Italia,,46.0765403,11.1230306,200.0,Pizzerie,2010-07-20,Via Secondo Da Trento,1,False,True,False,True,False,True,Dislivello in percentuale: 7.6; Lunghezza in cm.: 210.0,yes
36,ab_68036,AGENZIA DEL LAVORO,Trento,TN,Italia,www.agenzialavoro.tn.it,46.094576,11.1176606,200.0,Uffici Pubblici,2010-07-16,Via Guardini,75,False,True,False,False,False,False, ,limited
37,ab_24737,AGENZIA LIBRERIA SCALA MARIO,Trento,TN,Italia,www.libreriascala.it,46.0680187,11.1247987,190.0,Librerie,2013-01-14,Via Roggia Grande,26,False,True,False,False,False,False, ,limited
38,ab_18538,AGENZIA VIAGGI CALDERARI E MOGGIOLI S.R.L.,Trento,TN,Italia,,46.06074,11.1247,194.0,Agenzie viaggi e Promozione Turistica,2010-02-09,Corso Tre Novembre,96,False,True,False,False,False,False, ,limited
39,ab_80539,AGRITUR LE GIARE,Trento,TN,Italia,www.agriturlegiare.it,46.0435158,11.1232595,200.0,Garni e Agriturismo,2010-09-03,Via Fersina,30,False,False,False,False,False,False, ,no
40,ab_57340,AI VICOLI,Trento,TN,Italia,www.aivicoli.it,46.06751,11.120286,200.0,Ristoranti,2013-01-30,Piazza Santa Teresa Verzieri,1,False,True,False,True,False,False, ,limited
41,ab_78341,AIPD - ASSOCIAZIONE ITALIANA PERSONE DOWN,Trento,TN,Italia,www.aipd.it,46.0608,11.11614,200.0,Associazioni,2010-07-13,Via Taramelli,8,False,False,False,True,False,False, ,no
42,ab_57142,AL 77,Trento,TN,Italia,,46.0668965,11.1207144,200.0,Ristoranti,2013-01-22,Via Verdi,77,False,False,False,False,True,False, ,limited
43,ab_72843,AL CASTELLO,Trento,TN,Italia,www.alcastellotrento.com,46.0703117,11.1270439,200.0,Ristoranti,2010-07-29,Via Bernardo Clesio,8,False,True,False,True,True,False, ,yes
44,ab_1144,AL FEUDO,Trento,TN,Italia,,46.068819,11.120382,324.0,Bar,2013-02-01,Piazzetta Lainez,8,False,True,False,False,True,False, ,yes
45,ab_81445,AL MARINAIO,Trento,TN,Italia,www.almarinaio.eu,46.0383081,11.1234899,200.0,Alberghi / Hotel,2010-08-24,Via Dei Marinai D'italia,28,False,False,False,True,False,False, ,no
46,ab_23646,AL NUOVO FARO,Trento,TN,Italia,,46.0709233,11.109862,190.0,Ristoranti,2010-05-06,Via Brescia,45,False,False,False,True,False,True,Dislivello in percentuale: 10.0; Lunghezza in cm.: 100.0,limited
47,ab_15747,AL PARCO - BAR PASTICCERIA,Trento,TN,Italia,,46.069931,11.119781,216.0,Pasticcerie,2013-01-31,Via Pozzo,1,False,True,False,True,False,False, ,limited
48,ab_348,AL PORTEGHET,Trento,TN,Italia,,46.071177,11.124706,245.0,Bar,2013-01-04,Passaggio Dorigoni,3,False,True,True,True,True,False, ,yes
49,ab_81149,ALBERMONACO,Trento,TN,Italia,www.albermonaco.it,46.07328,11.12628,200.0,Alberghi / Hotel,2010-02-24,Via Torre D'augusto,25,False,False,False,True,False,False, ,no
50,ab_73350,ALL'ANFITEATRO,Trento,TN,Italia,,46.0692499,11.125253,200.0,Ristoranti,2013-01-14,Piazzetta Dell'anfiteatro,10,False,True,False,True,False,False, ,limited
51,ab_73851,ALLA GROTTA,Trento,TN,Italia,,46.0697049,11.1255647,200.0,Ristoranti,2013-01-25,Vicolo S. Marco,6,False,True,False,True,False,False, ,limited
52,ab_24352,ALLA SCALETTA,Trento,TN,Italia,,46.06861,11.1261711,200.0,Bar,2013-01-30,Via Santa Maria Maddalena,7,False,True,False,False,False,False, ,limited
53,ab_149953,ALMAC Associazione per la Lotta alle Malattie Cardiovascolari,Trento,TN,Italia,,46.060606,11.123717,200.0,Associazioni,2019-06-10,Via Sighele,5,False,True,False,False,False,False, ,limited
54,ab_111654,AMBULATORI MEDICI,Trento,TN,Italia,,46.04892,11.145598,0.0,Ambulatori Medici,2013-05-07,Via Dei Colli,1,False,True,True,True,False,False, ,yes
55,ab_11055,AMBULATORIO - STUDIO MEDICO DI MEDICINA GENERALE,Trento,TN,Italia,,46.07391,11.125417,250.0,Ambulatori Medici,2009-10-06,Via San Martino,11,False,True,False,True,False,False, ,limited
56,ab_131856,AMBULATORIO COMUNALE,Trento,TN,Italia,www.comune.trento.it,46.070925,11.058696,0.0,Ambulatori Medici,2013-12-04,Piazza Oveno,15,False,True,False,True,False,False, ,limited
57,ab_24257,AMERICAN BAR FEELING,Trento,TN,Italia,,46.06594,11.123804,180.0,Bar,2013-01-14,Via 1°androna Di Borgonuovo,20,False,True,False,True,False,True,Dislivello in percentuale: 8.0; Lunghezza in cm.: 250.0,yes
58,ab_33858,AMPLIFON spa,Trento,TN,Italia,www.amplifon.it,46.0678737,11.1208306,180.0,Apparecchi Acustici,2013-01-30,Via Cavour,45,False,True,False,False,False,True,Dislivello in percentuale: 24.0; Lunghezza in cm.: 39.0,yes
59,ab_71159,AMPLIFON,Trento,TN,Italia,,46.0890331,11.1190693,200.0,Ortopedie e Sanitarie,2010-08-04,Via Brennero,10,False,False,False,False,False,False, ,no
60,ab_72260,AMPLIFON,Trento,TN,Italia,www.amplifon.it,46.0865713,11.1186229,200.0,Apparecchi Acustici,2010-07-29,Piazza Del Tridente,10,False,True,False,False,False,False, ,limited
61,ab_34161,AMS Attrezzature Medico Sanitarie,Trento,TN,Italia,www.amstrento.it,46.0508949,11.1222815,180.0,Ortopedie e Sanitarie,2010-05-17,Via Degasperi,34/3,False,False,False,True,False,False, ,no
62,ab_52462,ANED - ASSOCIAZIONE NAZIONALE EMODIALIZZATI DIALISI E TRAPIANTO,Trento,TN,Italia,www.aned-onlus.it,46.058677,11.121518,200.0,Associazioni,2010-07-16,Via Bronzetti,29,False,True,False,True,False,True,Dislivello in percentuale: 7.0; Lunghezza in cm.: 470.0,yes
63,ab_72663,ANTICA TRATTORIA AI TRE GAROFANI,Trento,TN,Italia,www.aitregarofani.com,46.0658117,11.1229181,200.0,Ristoranti,2013-01-22,Via Mazzini,33,False,True,False,False,False,True,Dislivello in percentuale: 6.0; Lunghezza in cm.: 112.0,yes
64,ab_107864,ANTICO CAFFE' COMMERCIO,Trento,TN,Italia,,46.06766,11.12412,0.0,Bar,2010-09-13,Via Mantova,39,False,False,False,False,True,False, ,limited
65,ab_149865,APAN Associazione Provinciale Amici della Nefrologia,Trento,TN,Italia,www.apantrentino.it,46.060606,11.123717,200.0,Associazioni,2019-06-10,Via Sighele,5,False,True,False,False,False,False, ,limited
66,ab_80166,AQUILA D'ORO,Trento,TN,Italia,www.aquiladoro.it,46.0678255,11.1214588,200.0,Alberghi / Hotel,2013-01-16,Via Belenzani,76,False,True,False,True,False,False, ,limited
67,ab_10167,ARCI DEL TRENTINO,Trento,TN,Italia,wwww.arcideltrentino.it,46.073523,11.125462,216.0,Associazioni,2009-11-05,Via S. Martino,35,False,True,False,False,False,False, ,limited
68,ab_29368,ARCIGAY DEL TRENTINO,Trento,TN,Italia,www.arcigay.it,46.065148,11.122281,180.0,Associazioni,2010-05-14,Via Al Torrione,6,False,True,False,True,False,True,Dislivello in percentuale: 10.0,yes
69,ab_149469,ARCILESBICA TRENTINO ALTOADIGE ,Trento,TN,Italia,,46.065148,11.122281,200.0,Associazioni,2019-06-03,Via Al Torrione,6,False,True,False,True,False,True,Dislivello in percentuale: 10.0; Lunghezza in cm.: 1400.0,yes
70,ab_29270,ARCOIRIS ONLUS ,Trento,TN,Italia,www.arcoiris-onlus.it,46.065148,11.122281,180.0,Associazioni,2010-05-21,Via Al Torrione,6,False,True,False,True,False,True,Dislivello in percentuale: 10.0; Lunghezza in cm.: 1400.0,yes
71,ab_40171,ARGO - CENTRA (Galleria d'Arte e Centro Studi e Documentazione Arte Moderna e Contemporanea),Trento,TN,Italia,www.argo-centra.com,46.065588,11.123327,200.0,Gallerie arte,2013-01-09,Via Ii Androna Di Borgonuovo,3,False,True,False,False,False,False, ,limited
72,ab_34872,ARTE BOCCANERA CONTEMPORANEA,Trento,TN,Italia,,46.0625754,11.13026,180.0,Gallerie arte,2010-05-05,Via Milano 128/130,,False,True,False,False,True,False, ,yes
73,ab_50073,ARTE-SAN snc,Trento,TN,Italia,,46.0587878,11.1331758,185.0,Ortopedie e Sanitarie,2009-11-19,Via Pasubio,3,False,True,False,False,True,False, ,yes
74,ab_69174,ASSESSORATO ALLA SOLIDARIETA' INTERNAZIONALE E ALLA CONVIVENZA,Trento,TN,Italia,wwww.provincia.tn.it,46.0716931,11.1225533,200.0,Uffici Pubblici,2013-01-14,Via Gazzoletti,2,False,True,False,True,False,False, ,limited
75,ab_149675,ASSOCIAZIONE ACHIPE,Trento,TN,Italia,www.achipetn.org,46.058677,11.121518,0.0,Associazioni,2019-06-10,Via Bronzetti,29,False,True,False,True,False,True,Dislivello in percentuale: 7.0; Lunghezza in cm.: 470.0,yes
76,ab_149776,ASSOCIAZIONE ALISEI - Centro Progetto '92,Trento,TN,Italia,www.progetto92.it,46.065148,11.122281,200.0,Associazioni,2019-06-10,Via Bronzetti,29,False,True,False,True,False,True,Dislivello in percentuale: 7.0; Lunghezza in cm.: 470.0,yes
77,ab_50977,ASSOCIAZIONE BANCA DEL TEMPO,Trento,TN,Italia,www.bancatempotrento.it,46.058677,11.121518,200.0,Associazioni,2010-07-27,Via Bronzetti,29,False,True,False,True,False,True,Dislivello in percentuale: 7.0; Lunghezza in cm.: 470.0,yes
78,ab_52778,ASSOCIAZIONE CANCRO - ALTERNATIVE PER VIVERE ONLUS,Trento,TN,Italia,www.alternativepervivere.com,46.058677,11.121518,200.0,Associazioni,2010-07-16,Via Bronzetti,29,False,True,False,True,False,True,Dislivello in percentuale: 7.0; Lunghezza in cm.: 470.0,yes
79,ab_10379,ASSOCIAZIONE DEI REDICOI - REVERSI POLICARPI,Trento,TN,Italia,,46.0733165,11.1254664,216.0,Associazioni,2009-10-05,Via San Martino,47,False,True,False,True,False,False, ,limited
80,ab_35280,ASSOCIAZIONE LIFE - CENTRO SPORTIVO,Trento,TN,Italia,www.centrosportivolife.com,46.067043,11.120071,200.0,Impianti Sportivi,2013-01-22,Via Don Arcangelo Rizzi,6,False,True,False,True,False,False, ,limited
81,ab_52381,ASSOCIAZIONE NADIR ,Trento,TN,Italia,www.nadironlus.it,46.058677,11.121518,200.0,Associazioni,2010-07-16,Via Bronzetti,29,False,True,False,True,False,True,Dislivello in percentuale: 7.0; Lunghezza in cm.: 470.0,yes
82,ab_52882,ASSOCIAZIONE TRENTINI NEL MONDO,Trento,TN,Italia,www.trentininelmondo.it,46.0615846,11.1260785,200.0,Associazioni,2010-07-16,Via Malfatti,1,False,True,False,True,False,True,Dislivello in percentuale: 20.8; Lunghezza in cm.: 252.7,yes
83,ab_75583,AUDIOLOGIA,Trento,TN,Italia,www.audiologia.iaps.tn.it,46.0641212,11.127659,200.0,Ambulatori Medici,2010-07-14,Via Piave,18,False,False,False,False,False,True,Dislivello in percentuale: 20.0; Lunghezza in cm.: 670.0,limited
84,ab_74784,AUDITORIUM - APSS ,Trento,TN,Italia,,46.0577763,11.1279189,200.0,Teatri e Auditorium,2010-07-13,Viale Verona,"""",False,False,False,True,False,False, ,no
85,ab_14985,AUDITORIUM SANTA CHIARA,Trento,TN,Italia,www.centrosantachiara.it,46.0638997,11.1234869,235.0,Centri e sale culturali,2016-05-03,Via Santa Croce,"""",False,True,False,True,False,False, ,limited
86,ab_132286,AUDITORIUM VANEZE,Trento,TN,Italia,www.discovertrento.it,46.051322,11.073052,0.0,Centri e sale culturali,2013-12-04,Strada Di Vaneze,11,False,False,False,False,False,False, ,no
87,ab_69687,AUSER TRENTO onlus Associazione per l'autogestione dei servizi e la solidarietà,Trento,TN,Italia,www.auser.it,46.058677,11.121518,200.0,Associazioni,2010-07-16,Via Bronzetti,"""",False,True,False,True,False,True,Dislivello in percentuale: 7.0; Lunghezza in cm.: 470.0,yes
88,ab_27488,AUTORIMESSA EUROPA,Trento,TN,Italia,,46.0678222,11.1247683,185.0,Parcheggi,2010-04-26,Via Roggia Grande,20,False,True,False,False,False,False, ,limited
89,ab_26689,AUTOSTAZIONE,Trento,TN,Italia,www.ttesercizio.it,46.070793,11.119393,165.0,Stazioni,2013-02-01,Via Pozzo,,False,True,False,True,False,False, ,limited
90,ab_78790,AVVOCATURA DELLA PROVINCIA,Trento,TN,Italia,wwww.provincia.tn.it,46.072283,11.1207961,200.0,Uffici Pubblici,2010-06-30,Piazza Dante,15,False,True,False,True,False,False, ,limited
91,ab_15291,"AZIENDA PER IL TURISMO TRENTO, MONTE BONDONE, VALLE DEI LAGHI",Trento,TN,Italia,www.apt.trento.it,46.0696,11.11864,234.0,Agenzie viaggi e Promozione Turistica,2013-01-21,Piazza Della Portella,3,False,True,False,False,False,False, ,limited
92,ab_8692,"AZIENDA PER IL TURISMO TRENTO, MONTE BONDONE, VALLE DEI LAGHI",Trento,TN,Italia,www.apt.trento.it,46.06974,11.121573,211.0,Agenzie viaggi e Promozione Turistica,2017-04-26,Piazza Dante,24,False,True,False,False,False,True,Dislivello in percentuale: 8.0; Lunghezza in cm.: 485.0,yes
93,ab_67493,AZIENDA PROVINCIALE PER L'ENERGIA,Trento,TN,Italia,www.provincia.tn.it,46.0906942,11.118853,200.0,Uffici Pubblici,2010-06-18,Via Gilli,4,False,True,False,True,False,True,Dislivello in percentuale: 5.0; Lunghezza in cm.: 1700.0,yes
94,ab_36494,Agenzia del Lavoro di Trento - sede centrale,Trento,TN,Italia,www.agenzialavoro.tn.it,46.094579,11.1176606,200.0,Uffici Pubblici,2010-07-29,Via Guardini,75,False,False,False,False,False,False, ,no
95,ab_36395,Agenzia delle Entrate,Trento,TN,Italia,www.agenziaentrate.it,46.088087,11.1172982,200.0,Uffici Pubblici,2010-07-30,Via Brennero,133,False,True,False,False,False,True,Dislivello in percentuale: 15.0; Lunghezza in cm.: 700.0,yes
96,ab_39896,Alpina Tourdolomit,Trento,TN,Italia,www.alpina-tourdolomit.com,46.0702565,11.1253927,200.0,Agenzie viaggi e Promozione Turistica,2013-01-25,Via San Marco,19,False,True,False,False,False,False, ,limited
97,ab_36297,Archivio Notarile Distrettuale,Trento,TN,Italia,www.giustizia.it,46.073301,11.1181218,200.0,Uffici Pubblici,2010-07-30,Corso Buonarroti,53,False,True,False,False,False,False, ,limited
98,ab_43998,Area Archeologica di Palazzo Lodron,Trento,TN,Italia,www.trentinocultura.net,46.0679041,11.12269,200.0,Musei,2013-01-04,Piazza Lodron,31,False,True,False,False,False,False, ,limited
99,ab_29699,Associazione Agriturismo Trentino,Trento,TN,Italia,www.agriturismotrentino.com,46.074522,11.1225305,180.0,Associazioni,2010-05-21,Via Jacopo Aconcio,13,False,True,False,False,True,False, ,yes
100,ab_294100,Associazione Alzheimer Trento onlus,Trento,TN,Italia,www.alzheimertrento.org,46.065148,11.122281,180.0,Associazioni,2010-05-18,Via Al Torrione,6,False,True,False,True,False,True,Dislivello in percentuale: 14.0; Lunghezza in cm.: 1000.0,yes
101,ab_508101,Associazione Parkinson,Trento,TN,Italia,www.parkinson-trento.it,46.058677,11.121518,200.0,Associazioni,2010-07-27,Via Bronzetti,29,False,True,False,True,False,True,Dislivello in percentuale: 7.0; Lunghezza in cm.: 470.0,yes
102,ab_488102,Atelier d'Arte - Studio di esposizione permanente,Trento,TN,Italia,,46.0641872,11.1312581,200.0,Gallerie arte,2010-07-14,Via Giovanelli,35,False,True,False,False,False,False, ,limited
103,ab_492103,Audiometrica Trentina,Trento,TN,Italia,,46.0641714,11.1292017,200.0,Apparecchi Acustici,2010-07-14,Via San Bernardino,14/2,False,True,True,False,False,False, ,yes
104,ab_803104,B & B ADA,Trento,TN,Italia,www.bbada.it,46.066297,11.122649,200.0,Bed & Breakfast,2013-01-11,Via Mazzini,4,False,False,False,False,False,False, ,no
105,ab_802105,B & B ANNA,Trento,TN,Italia,,46.0599099,11.1170455,200.0,Bed & Breakfast,2010-09-06,Via Milano,12,False,False,True,False,False,False, ,limited
106,ab_30106,B & B CAFFE' CITTA',Trento,TN,Italia,,46.06951,11.12374,214.0,Bar,2013-01-11,Piazza Cesare Battisti,10,False,True,False,True,False,False, ,limited
107,ab_804107,B & B CASA POMPERMAIER,Trento,TN,Italia,www.casapompermaier.it,46.05687,11.12548,200.0,Bed & Breakfast,2010-08-27,Via Aldo Schmidt,5,False,False,False,False,True,False, ,limited
108,ab_83108,BAGNI PUBBLICI,Trento,TN,Italia,,46.06824,11.12146,210.0,Servizi Igienici,2013-01-16,Piazza Dante,,False,True,False,True,False,True,Dislivello in percentuale: 8.0; Lunghezza in cm.: 485.0,yes
109,ab_265109,BANCA BOVIO CALDERARI GRUPPO BANCA SELLA,Trento,TN,Italia,,46.07056,11.12037,163.0,Bancomat,2010-03-30,Via Pozzo,,False,True,False,False,False,False, ,limited
110,ab_165110,BANCA DI TRENTO E BOLZANO,Trento,TN,Italia,www.btbonline.it,46.06802,11.12369,173.0,Bancomat,2013-01-24,Via Mantova,19,False,True,False,False,False,True,Dislivello in percentuale: 8.0; Lunghezza in cm.: 96.0,yes
111,ab_172111,BANCA DI TRENTO E BOLZANO,Trento,TN,Italia,,46.06473,11.12315,195.0,Bancomat,2010-02-02,Via Travai,236,False,True,False,False,False,False, ,limited
112,ab_314112,BANCA INTESA,Trento,TN,Italia,,46.0555133,11.1325223,180.0,Bancomat,2010-05-25,Via Gocciadoro,20/22,False,True,False,False,False,False, ,limited
113,ab_47113,BANCA INTESA,Trento,TN,Italia,,46.06854,11.12075,228.0,Bancomat,2009-11-12,Via Oriola,36,False,True,False,False,False,False, ,limited
114,ab_272114,BANCA NAZIONALE DEL LAVORO,Trento,TN,Italia,,46.07265,11.11985,185.0,Bancomat,2010-03-23,Piazza Dante,1,False,True,False,False,False,True,Dislivello in percentuale: 16.5; Lunghezza in cm.: 200.0,yes
115,ab_169115,BANCA POPOLARE DEL TRENTINO,Trento,TN,Italia,,46.06388,11.12348,188.0,Bancomat,2010-01-29,Via S. Croce,43,False,False,False,False,False,False, ,no
116,ab_317116,BANCA POPOLARE DEL TRENTINO,Trento,TN,Italia,,46.057739,11.120795,180.0,Bancomat,2010-05-17,Via Vittorio Veneto,18,False,True,False,False,False,False, ,limited
117,ab_327117,BANCA POPOLARE DEL TRENTINO,Trento,TN,Italia,,46.0583945,11.130563,180.0,Bancomat,2010-05-17,Via Bolghera,38,False,True,False,False,False,True,Dislivello in percentuale: 11.8; Lunghezza in cm.: 51.0,yes
118,ab_156118,BANCA POPOLARE DI VICENZA,Trento,TN,Italia,,46.06821,11.11862,213.0,Bancomat,2010-01-26,Via Rosmini,1,False,True,False,False,False,False, ,limited
119,ab_175119,BANCA POPOLARE TEDESCA - VOLKSBANK,Trento,TN,Italia,www.bancapopolare.it,46.06402,11.12358,220.0,Bancomat,2010-02-02,Via S. Croce,,False,True,False,False,False,False, ,limited
120,ab_187120,BANCA SELLA NORD EST BOVIO CALDERARI,Trento,TN,Italia,,46.06056,11.12244,210.0,Bancomat,2010-02-09,Via Perini,20,False,True,False,False,False,False, ,limited
121,ab_164121,BANCA SELLA NORDEST BOVIO CALDERARI,Trento,TN,Italia,,46.06823,11.12244,213.0,Bancomat,2013-02-01,Via Oss Mazzurana,59,False,True,False,False,True,False, ,yes
122,ab_72122,BANCA SELLA NORDEST BOVIO CALDERARI,Trento,TN,Italia,,46.06823,11.12244,213.0,Bancomat,2009-11-11,Via Oss Mazzurana,59,False,False,False,False,False,False, ,no
123,ab_589123,BANCOMAT BANCA ANTONVENETA GRUPPO MONTEPASCHI,Trento,TN,Italia,,46.0653236,11.1140684,200.0,Bancomat,2010-04-21,Via San Severino,7,False,False,False,False,False,False, ,no
124,ab_586124,BANCOMAT BANCA DI TRENTO E BOLZANO,Trento,TN,Italia,,46.0535972,11.129761,200.0,Bancomat,2010-05-17,Viale Verona,128/A,False,False,False,False,False,False, ,no
125,ab_538125,BANCOMAT BANCA NAZIONALE DEL LAVORO,Trento,TN,Italia,,46.0730641,11.1222183,200.0,Bancomat,2010-07-23,Via Romagnosi,"""",False,False,False,False,False,False, ,no
126,ab_542126,BANCOMAT BANCA POPOLARE DEL TRENTINO,Trento,TN,Italia,,46.0724524,11.1237509,200.0,Bancomat,2010-07-07,Via Petrarca,1/7,False,False,False,False,False,False, ,no
127,ab_613127,BANCOMAT BANCA POPOLARE DEL TRENTINO,Trento,TN,Italia,,46.0940657,11.1179657,200.0,Bancomat,2010-08-06,Via Guardini,50,False,False,False,False,False,False, ,no
128,ab_543128,BANCOMAT BANCA POPOLARE DELL'EMILIA ROMAGNA,Trento,TN,Italia,,46.0769709,11.1198829,200.0,Bancomat,2010-07-07,Piazza Generale Cantore,32,False,True,False,False,False,False, ,limited
129,ab_633129,BANCOMAT BANCA POPOLARE DI SONDRIO,Trento,TN,Italia,,46.0538783,11.1173177,200.0,Bancomat,2010-07-20,Via Petrarca,14,False,True,False,False,False,False, ,limited
130,ab_611130,BANCOMAT BANCA POPOLARE VOLKSBANK,Trento,TN,Italia,,46.0474893,11.126253,200.0,Bancomat,2010-06-30,Via Enrico Fermi,11,False,False,False,False,False,False, ,no
131,ab_536131,BANCOMAT BANCA TRENTO E BOLZANO,Trento,TN,Italia,,46.0769289,11.118952,200.0,Bancomat,2010-07-20,Via Fratelli Fontana,44,False,True,False,False,False,True,Dislivello in percentuale: 12.6; Lunghezza in cm.: 37.5,yes
132,ab_590132,BANCOMAT BANCA TRENTO E BOLZANO,Trento,TN,Italia,,46.0538783,11.1206155,200.0,Bancomat,2010-05-17,Via San Pio X,97,False,False,False,False,False,False, ,no
133,ab_534133,BANCOMAT BNL GRUPPO BNP ,Trento,TN,Italia,,46.0769089,11.118952,200.0,Bancomat,2010-07-20,Via Fratelli Fontana,34,False,True,False,False,True,False, ,yes
134,ab_539134,BANCOMAT CASSA DI RISPARMIO DI PADOVA E ROVIGO,Trento,TN,Italia,,46.0730641,11.1222183,200.0,Bancomat,2010-07-23,Via Romagnosi,"""",False,False,False,False,False,False, ,no
135,ab_591135,BANCOMAT CASSA RURALE DI ALDENO E CADINE,Trento,TN,Italia,,46.0500962,11.1242938,200.0,Bancomat,2010-05-17,Via Degasperi,92,False,False,False,False,False,False, ,no
136,ab_593136,BANCOMAT CASSA RURALE DI ALDENO E CADINE,Trento,TN,Italia,,46.0706406,11.1119991,180.0,Bancomat,2010-04-22,Via Brescia,19,False,False,False,False,False,False, ,no
137,ab_533137,BANCOMAT CASSA RURALE DI LAVIS E VALLE DI CEMBRA,Trento,TN,Italia,,46.0745334,11.1249043,200.0,Bancomat,2010-07-20,Largo Nazario Sauro,4,False,True,False,False,True,False, ,yes
138,ab_540138,BANCOMAT CASSA RURALE DI LAVIS E VALLE DI CEMBRA,Trento,TN,Italia,,46.0746621,11.1248997,200.0,Bancomat,2010-07-20,Largo Nazario Sauro,8,False,True,False,False,True,False, ,yes
139,ab_537139,BANCOMAT CASSA RURALE DI TRENTO,Trento,TN,Italia,,46.0743344,11.1186019,200.0,Bancomat,2010-07-20,Corso Buonarroti,39,False,True,False,False,True,False, ,yes
140,ab_544140,BANCOMAT CASSA RURALE DI TRENTO,Trento,TN,Italia,,46.0773905,11.1199732,100.0,Bancomat,2010-07-07,Piazza Generale Cantore,23,False,True,False,False,True,False, ,yes
141,ab_609141,BANCOMAT MEDIO VALTELLINESE,Trento,TN,Italia,,46.0678927,11.12298,200.0,Bancomat,2010-06-28,Piazza Pasi,21,False,False,False,False,True,False, ,limited
142,ab_545142,BANCOMAT UNICREDIT BANCA,Trento,TN,Italia,,46.0769089,11.118952,200.0,Bancomat,2010-07-07,Via Fratelli Fontana,34,False,False,False,False,False,False, ,no
143,ab_189143,BAR 70,Trento,TN,Italia,,46.06041,11.12191,226.0,Bar,2010-02-09,Via Endrici,5,False,True,False,True,True,False, ,yes
144,ab_615144,BAR 900,Trento,TN,Italia,,46.0664885,11.1167514,200.0,Bar,2010-08-09,Via Verdi,11,False,True,False,False,False,False, ,limited
145,ab_580145,BAR ADRIA S.A.S.,Trento,TN,Italia,,46.0745334,11.1249043,200.0,Bar,2010-07-20,Largo Nazario Sauro,4,False,True,False,False,False,True,Dislivello in percentuale: 34.0; Lunghezza in cm.: 27.0,yes
146,ab_430146,BAR AL MARINAIO,Trento,TN,Italia,www.almarinaio.eu,46.0385886,11.1232387,200.0,Pasticcerie,2010-08-24,Via Dei Marinai D'italia,28,False,False,False,True,False,False, ,no
147,ab_174147,BAR BACCUS,Trento,TN,Italia,,46.06488,11.12364,196.0,Bar,2013-01-09,Piazza Fiera,11,False,True,False,True,False,True,Dislivello in percentuale: 12.5; Lunghezza in cm.: 168.0,yes
148,ab_90148,BAR CAFFETTERIA NETTUNO,Trento,TN,Italia,,46.06788,11.12082,212.0,Bar,2013-01-30,Via Cavour,40,False,True,False,True,True,False, ,yes
149,ab_143149,BAR CAFFÉ RANDRÉ,Trento,TN,Italia,,46.06835,11.12433,198.0,Bar,2013-01-11,Largo Carducci Giosué,16,False,True,True,False,False,False, ,yes
150,ab_76150,BAR CARDUCCI,Trento,TN,Italia,,46.06837,11.1247,209.0,Bar,2013-01-11,Largo Carducci,25,False,True,False,True,False,False, ,limited
151,ab_518151,BAR CARLA,Trento,TN,Italia,,46.076593,11.124022,200.0,Bar,2010-07-14,Via Del Brennero,46,False,True,True,False,False,False, ,yes
152,ab_23152,BAR CAVOUR,Trento,TN,Italia,,46.06835,11.12003,308.0,Bar,2013-01-21,Piazza Santa Maria Maggiore,19,False,True,False,False,False,False, ,limited
153,ab_689153,BAR CENTRO NORD 3,Trento,TN,Italia,,46.0906942,11.118853,200.0,Uffici Pubblici,2010-07-16,Via Gilli,4,False,False,False,False,False,False, ,no
154,ab_238154,BAR CIN CIN,Trento,TN,Italia,,46.0706371,11.1118726,195.0,Bar,2010-05-06,Via Brescia,38,False,True,True,False,True,False, ,yes
155,ab_60155,BAR CITY,Trento,TN,Italia,,46.06778,11.12478,215.0,Bar,2013-01-15,Via Roggia Grande,24,False,True,False,False,False,False, ,limited
156,ab_7156,BAR DA CLESIO DI CACCO VITO,Trento,TN,Italia,,46.0715,11.12583,193.0,Bar,2013-01-04,Piazza Della Mostra,22,False,True,False,True,False,True,Dislivello in percentuale: 8.3; Lunghezza in cm.: 60.0,yes
157,ab_630157,BAR DANY,Trento,TN,Italia,,46.0589265,11.1190522,200.0,Bar,2010-07-01,Via Giusti,45,False,True,False,True,False,False, ,limited
158,ab_106158,BAR DEI CAVAI ERREDI SAS,Trento,TN,Italia,,46.0722025,11.1251825,256.0,Bar,2009-10-06,Via San Martino,90,False,True,True,False,True,False, ,yes
159,ab_264159,BAR DOGANA,Trento,TN,Italia,,46.0734,11.12094,196.0,Bar,2010-03-23,Via Romagnosi,2,False,False,False,False,False,False, ,no
160,ab_146160,BAR DUOMO,Trento,TN,Italia,,46.06686,11.12063,213.0,Bar,2013-01-22,Via Verdi,42,False,True,False,True,False,False, ,limited
161,ab_795161,BAR ELISABETTA,Trento,TN,Italia,,46.0585945,11.1235398,200.0,Bar,2010-07-01,Via Veneto,116,False,True,False,False,True,False, ,yes
162,ab_56162,BAR FIORENTINA,Trento,TN,Italia,,46.06698,11.12245,205.0,Bar,2013-01-09,Via Calepina,,False,True,False,True,False,False, ,limited
163,ab_626163,BAR FONTANARI,Trento,TN,Italia,,46.0497818,11.1248527,200.0,Bar,2010-06-30,Via Degasperi,51,False,False,False,True,False,False, ,no
164,ab_235164,BAR FUNIVIA,Trento,TN,Italia,,46.07001,11.1155238,200.0,Bar,2010-05-06,Lungadige Monte Grappa,1,False,True,False,True,False,False, ,limited
165,ab_710165,BAR GAIA,Trento,TN,Italia,www.risto3.it,46.0890708,11.1097177,200.0,Bar,2010-08-06,Via Maccani,128,False,False,False,True,False,False, ,no
166,ab_161166,BAR GALASSO,Trento,TN,Italia,,46.07064,11.12229,196.0,Bar,2013-01-10,Via Torre Verde,4,False,True,False,False,False,False, ,limited
167,ab_55167,BAR GARZETTI,Trento,TN,Italia,,46.065687,11.124279,248.0,Bar,2013-01-09,Piazza Garzetti,5,False,True,False,True,False,True,Dislivello in percentuale: 9.3; Lunghezza in cm.: 72.0,yes
168,ab_51168,BAR GELATERIA NUOVA,Trento,TN,Italia,,46.0660869,11.1227717,194.0,Bar,2013-01-09,Via Mazzini,1,False,True,False,False,False,False, ,limited
169,ab_661169,BAR GIUSTI,Trento,TN,Italia,,46.0611555,11.1189909,200.0,Bar,2010-06-30,Via Giusti,22,False,True,False,True,True,False, ,yes
170,ab_57170,BAR GOLDEN EAGLE STREET BAR,Trento,TN,Italia,,46.06794,11.12135,214.0,Bar,2013-01-16,Via Belenzani 74,,False,True,False,True,False,False, ,limited
171,ab_41171,BAR ITALIA,Trento,TN,Italia,,46.06711,11.12072,180.0,Bar,2013-01-16,Piazza Duomo,7,False,True,False,True,True,False, ,yes
172,ab_75172,BAR JOHNNY,Trento,TN,Italia,,46.06731,11.12572,207.0,Bar,2013-01-14,Via Calepina,69,False,True,False,False,False,True,Dislivello in percentuale: 7.2; Lunghezza in cm.: 175.0,yes
173,ab_579173,BAR MADISON,Trento,TN,Italia,,46.0754067,11.1246646,200.0,Bar,2010-07-20,Via Brennero 5/1,,False,True,False,True,False,False, ,limited
174,ab_700174,BAR MAGNANI,Trento,TN,Italia,,46.074644,11.1187048,200.0,Bar,2010-07-20,Corso Buonarroti,26,False,True,False,True,True,False, ,yes
175,ab_43175,BAR MARCHIODI,Trento,TN,Italia,,46.0694654,11.1233431,320.0,Bar,2013-01-11,Piazza Italia,4,False,False,False,True,False,False, ,no
176,ab_52176,BAR MAZZINI,Trento,TN,Italia,,46.065612,11.122987,210.0,Bar,2013-01-09,Via Mazzini,50,False,False,False,True,False,False, ,no
177,ab_566177,BAR MAZZOLENI MARI,Trento,TN,Italia,,46.0772226,11.120008,200.0,Bar,2010-07-07,Piazza Generale Cantore,28,False,True,False,False,True,False, ,yes
178,ab_213178,BAR MEDAGLIE D'ORO,Trento,TN,Italia,,46.0577455,11.1325995,180.0,Bar,2010-04-13,Largo Medaglie D'oro,2,False,True,False,True,False,True,Dislivello in percentuale: 8.0; Lunghezza in cm.: 44.6,yes
179,ab_231179,BAR MEETING,Trento,TN,Italia,,46.0637,11.12206,258.0,Bar,2010-03-17,Via Xxiv Maggio,1,False,True,False,False,False,False, ,limited
180,ab_627180,BAR MELODY,Trento,TN,Italia,,46.0533334,11.12974356,200.0,Bar,2010-06-30,Viale Verona,134,False,True,False,True,True,True,Dislivello in percentuale: 4.8; Lunghezza in cm.: 268.0,yes
181,ab_24181,BAR OLIMPIA,Trento,TN,Italia,www.caffeolimpia.com,46.06812,11.12124,195.0,Bar,2013-01-15,Via Belenzani,33/1,False,True,True,False,False,True,Dislivello in percentuale: 9.9; Lunghezza in cm.: 140.0,yes
182,ab_15182,BAR ORCHIDEA,Trento,TN,Italia,,46.068984,11.120076,203.0,Bar,2013-01-31,Via Orfane,17,False,True,True,False,False,False, ,yes
183,ab_8183,BAR ORIOLA,Trento,TN,Italia,,46.06834,11.12346,199.0,Bar,2013-01-11,Via Oriola,28,False,True,False,True,False,False, ,limited
184,ab_39184,BAR PASI,Trento,TN,Italia,,46.06781,11.12209,199.0,Bar,2013-01-11,Piazza Pasi,,False,True,False,False,False,False, ,limited
185,ab_1370185,BAR PASTICCERIA TEATRO,Trento,TN,Italia,,46.069367,11.122515,0.0,Pasticcerie,2014-10-14,Via Oss Mazzurana,15,False,True,False,True,False,True,Dislivello in percentuale: 10.6; Lunghezza in cm.: 47.0,yes
186,ab_192186,BAR PERINI CIVICO 131,Trento,TN,Italia,,46.06042,11.12195,185.0,Bar,2010-02-09,Via Perini,131,False,True,False,True,True,True,Dislivello in percentuale: 26.3; Lunghezza in cm.: 21.0,yes
187,ab_657187,BAR PRATI,Trento,TN,Italia,,46.057213,11.1181957,200.0,Bar,2010-07-01,Via Dei Muradei,4,False,True,True,True,True,False, ,yes
188,ab_228188,BAR ROBY,Trento,TN,Italia,,46.0644,11.12117,271.0,Bar,2010-03-17,Via Travai,"""",False,True,False,True,True,False, ,yes
189,ab_216189,BAR ROSA,Trento,TN,Italia,,46.0623,11.12565,207.0,Bar,2010-04-09,Via Piave,56,False,True,False,False,False,False, ,limited
190,ab_2190,BAR ROSSINI,Trento,TN,Italia,,46.0714,11.125001,239.0,Bar,2013-01-04,Via Suffragio,27,False,True,False,True,True,False, ,yes
191,ab_210191,BAR SANTA CHIARA (OSPEDALE S.CHIARA),Trento,TN,Italia,,46.0578948,11.1329703,180.0,Bar,2010-04-13,Largo Medaglie D'oro,1,False,True,False,True,False,True,Dislivello in percentuale: 5.0; Lunghezza in cm.: 3000.0,yes
192,ab_167192,BAR SANTA CHIARA,Trento,TN,Italia,,46.0636,11.12357,212.0,Bar,2010-01-29,Via Santa Croce,59,False,True,False,False,False,False, ,limited
193,ab_270193,BAR STAZIONE TRENITALIA,Trento,TN,Italia,,46.07265,11.11985,185.0,Bar,2010-03-23,Piazza Dante,1,False,True,False,False,False,True,Dislivello in percentuale: 16.5; Lunghezza in cm.: 200.0,yes
194,ab_269194,BAR TN/MALE',Trento,TN,Italia,,46.07318,11.12061,138.0,Bar,2010-03-23,Via Dogana 3,,False,True,False,True,False,False, ,limited
195,ab_220195,BAR TORINO,Trento,TN,Italia,,46.071742,11.123912,185.0,Bar,2013-02-01,Piazza Silvio Pellico 3/2,,False,True,False,False,True,False, ,yes
196,ab_153196,BAR TORRE VANGA,Trento,TN,Italia,,46.069768,11.118202,188.0,Bar,2013-01-22,Piazza Leonardo Da Vinci,1,False,True,False,True,False,False, ,limited
197,ab_170197,BAR TRE PORTONI,Trento,TN,Italia,,46.06388,11.12361,220.0,Bar,2010-02-02,Via S. Croce,48,False,True,False,False,False,False, ,limited
198,ab_305198,BAR VEGAS,Trento,TN,Italia,,46.0628609,11.1310403,180.0,Bar,2010-05-25,Via Bezzecca,4,False,True,False,True,False,False, ,limited
199,ab_560199,BAR ZINZORLA,Trento,TN,Italia,,46.0774364,11.1197069,200.0,Bar,2010-07-07,Piazza Generale Cantore,12,False,True,False,False,True,False, ,yes
200,ab_218200,BARYCENTRO,Trento,TN,Italia,www.gruppospes.it,46.06981,11.12748,198.0,Bar,2013-01-15,Piazza Venezia,38,False,True,False,True,False,False, ,limited
201,ab_1071201,BENETTI,Trento,TN,Italia,,46.0657,11.1216,0.0,Riparazione Autovetture,2010-09-13,Via Degli Orti,7,False,False,False,False,False,True,Dislivello in percentuale: 35.0; Lunghezza in cm.: 600.0,limited
202,ab_810202,BEST WESTERN QUID HOTEL,Trento,TN,Italia,www.quidhoteltrento.com,46.1018531,11.1013046,200.0,Alberghi / Hotel,2010-08-24,Via Innsbruck,11,False,True,False,True,False,False, ,limited
203,ab_91203,BIBLIOTECA COMUNALE DI TRENTO,Trento,TN,Italia,www.bibcom.trento.it,46.0696,11.12073,248.0,Biblioteche,2016-05-03,Via Roma,55,False,True,False,True,False,False, ,limited
204,ab_512204,BIBLIOTECA DEL MUSEO TRIDENTINO DI SCIENZE NATURALI,Trento,TN,Italia,www.mtsn.it/biblioteca,46.0669458,11.13087,200.0,Associazioni,2010-07-26,Via Calepina,10,False,True,False,False,False,True,Dislivello in percentuale: 20.0; Lunghezza in cm.: 60.0,yes
205,ab_530205,BIBLIOTECA DELL'ISTITUTO REGIONALE DI STUDI E RICERCA SOCIALE,Trento,TN,Italia,www.irsrs.tn.it,46.068675,11.119205,200.0,Biblioteche,2013-01-21,Piazza Santa Maria Maggiore,7,False,True,False,True,False,True,Dislivello in percentuale: 6.0; Lunghezza in cm.: 182.0,yes
206,ab_514206,BIBLIOTECA DELLA GIUNTA PROVINCIALE DI TRENTO,Trento,TN,Italia,www.provincia.tn.it,46.0732112,11.128254,200.0,Uffici Pubblici,2010-07-26,Via Romagnosi,"""",False,False,False,True,False,False, ,no
207,ab_390207,BIBLIOTECA DELLA MONTAGNA - PALAZZO SARACINI CRESSERI,Trento,TN,Italia,www.sat.tn.it,46.0699422,11.1232717,200.0,Biblioteche,2016-05-03,Via Manci,57,False,True,False,True,False,False, ,limited
208,ab_511208,BIBLIOTECA SULLE AUTONOMIE E MINORANZE LINGUISTICHE,Trento,TN,Italia,www.regione.taa.it,46.071857,11.121855,200.0,Biblioteche,2013-02-01,Via Gazzoletti,2,False,True,False,True,False,False, ,limited
209,ab_623209,BIBLIOTECA UNIVERSITARIA CENTRALE - EX PALAZZO CAVAZZANI,Trento,TN,Italia,www.portale.unitn.it/biblioteca,46.0663801,11.1160111,200.0,Biblioteche,2013-12-12,Via Verdi,8,False,True,False,True,False,False, ,limited
210,ab_575210,BIG CENTER,Trento,TN,Italia,,46.0495288,11.1223165,200.0,Attivita commerciali,2010-07-08,Via Degasperi,1/17,False,False,False,False,False,False, ,no
211,ab_776211,BLOCKBUSTER ITALIA SPA,Trento,TN,Italia,www.blockbuster.it,46.0922662,11.1158929,200.0,Librerie,2010-07-14,Via Del Brennero,16,False,True,False,False,False,False, ,limited
212,ab_214212,BLUE BAR,Trento,TN,Italia,,46.0572436,11.1320535,183.0,Bar,2010-04-13,Via Paolo Orsi,7,False,True,False,True,False,True,Dislivello in percentuale: 6.5; Lunghezza in cm.: 134.0,yes
213,ab_183213,BNL - BANCA NAZIONALE DEL LAVORO,Trento,TN,Italia,,46.06168,11.12444,193.0,Bancomat,2010-02-03,Corso Tre Novembre,21,False,True,False,False,False,False, ,limited
214,ab_20214,BOTTEGA DEL CAFFE' DERSUT,Trento,TN,Italia,www.dersut.it,46.069291,11.120042,230.0,Bar,2013-02-01,Via Delle Orfane,5,False,True,True,False,False,False, ,yes
215,ab_572215,BOUGANVILLE,Trento,TN,Italia,,46.0724524,11.1237509,200.0,Ristoranti,2010-07-07,Via Petrarca,"""",False,False,False,True,True,False, ,limited
216,ab_721216,BREN CENTER,Trento,TN,Italia,,46.0947884,11.1152304,200.0,Attivita commerciali,2010-07-08,Via Trener,16,False,False,False,True,False,False, ,no
217,ab_342217,BRIGHENTI,Trento,TN,Italia,www.brighenti.eu,46.071208,11.124969,180.0,Ortopedie e Sanitarie,2013-01-11,Via Suffragio,37,False,False,False,False,True,False, ,limited
218,ab_502218,Bar dei Botesei,Trento,TN,Italia,,46.0589472,11.1309134,200.0,Bar,2010-07-27,Via Gorizia,18,False,True,False,False,True,False, ,yes
219,ab_396219,Bluvacanze Trento,Trento,TN,Italia,www.viaggiconchiglia.net,46.0638138,11.1217172,200.0,Agenzie viaggi e Promozione Turistica,2010-08-19,Via Xxiv Maggio,2/2,False,True,False,False,False,False, ,limited
220,ab_195220,C.I.R.S. CENTRO PROVINCIALE DI TRENTO - ONLUS,Trento,TN,Italia,www.cirstn.it,46.06144,11.11837,198.0,Associazioni,2010-02-16,Via Taramelli,17,False,True,False,True,False,False, ,limited
221,ab_197221,CAFE' CREME,Trento,TN,Italia,,46.06243,11.12609,194.0,Bar,2010-03-03,Via Piave,74,False,True,False,False,True,False, ,yes
222,ab_179222,CAFFE' AL CORSO,Trento,TN,Italia,,46.06192,11.12423,227.0,Bar,2010-02-03,Corso 3 Novembre,40,False,True,False,True,False,False, ,limited
223,ab_219223,CAFFE' AL TEMPO PERSO,Trento,TN,Italia,,46.072167,11.1234695,167.0,Bar,2010-03-09,Via Petrarca,32,False,True,False,True,True,False, ,yes
224,ab_217224,CAFFE' DA GIORGIO,Trento,TN,Italia,,46.066278,11.11899,143.0,Bar,2013-01-22,Via Rosmini,56,False,True,False,False,True,False, ,yes
225,ab_26225,CAFFE' EXCELSIOR,Trento,TN,Italia,,46.070058,11.124312,229.0,Bar,2013-01-25,Via S. Pietro Ang. Via Manci,58,False,True,False,True,True,False, ,yes
226,ab_89226,CAFFE' LATTE,Trento,TN,Italia,,46.069777,11.122238,200.0,Pizzerie,2013-01-23,Via Manci,20,False,True,False,False,False,False, ,limited
227,ab_1079227,CAFFE' MANZONI,Trento,TN,Italia,,46.073376,11.125052,0.0,Bar,2013-03-13,Via Manzoni,19,False,False,False,False,False,False, ,no
228,ab_33228,CAFFE' PIAZZA LODRON,Trento,TN,Italia,,46.06809,11.12339,251.0,Ristoranti,2009-11-03,Piazza Lodron,21,False,False,False,True,False,True,Dislivello in percentuale: 7.5; Lunghezza in cm.: 62.0,limited
229,ab_96229,CAFFE' PORTICI,Trento,TN,Italia,,46.06769,11.12099,210.0,Bar,2013-01-16,Piazza Duomo,10,False,True,True,False,True,False, ,yes
230,ab_109230,CAFFE' SILVANA,Trento,TN,Italia,,46.07615,11.12451,185.0,Bar,2009-10-06,Via Bartolomeo Da Trento,6,False,True,False,False,False,True,Dislivello in percentuale: 23.3; Lunghezza in cm.: 21.0,yes
231,ab_85231,CAFFE' TRIDENTE,Trento,TN,Italia,,46.06748,11.12137,225.0,Bar,2013-01-16,Piazza Duomo,,False,True,False,True,False,True,Dislivello in percentuale: 8.5; Lunghezza in cm.: 118.0,yes
232,ab_166232,CAFFE' VENEZIA,Trento,TN,Italia,,46.0675111,11.126518,232.0,Bar,2013-01-14,Largo Porta Nuova,11,False,True,False,True,True,False, ,yes
233,ab_227233,CAFFE' VERDI,Trento,TN,Italia,,46.06663,11.11862,220.0,Bar,2013-01-23,Via Verdi,31/3,False,True,False,True,False,False, ,limited
234,ab_145234,CAFFÉ MOZART,Trento,TN,Italia,,46.06686,11.12063,195.0,Bar,2013-01-22,Via Verdi,32,False,True,True,False,False,False, ,yes
235,ab_714235,CAFFÉ ONDA,Trento,TN,Italia,,46.0921064,11.1173985,200.0,Paninoteche,2010-08-05,Via Lunelli,54,False,True,False,True,False,False, ,limited
236,ab_144236,CAFFÉ RISTORANTE UNIVERSITA',Trento,TN,Italia,,46.0662,11.1197,241.0,Ristoranti,2013-01-31,Via A. Prati,4,False,True,False,True,False,True,Dislivello in percentuale: 16.7; Lunghezza in cm.: 45.0,yes
237,ab_416237,CALZOLERIA DA ALCIDE,Trento,TN,Italia,,46.0704475,11.1235552,200.0,Attivita commerciali,2013-01-25,Vicolo Dell'adige,21,False,True,False,False,True,False, ,yes
238,ab_361238,"CAMERA DI COMMERCIO, INDUSTRIA, ARTIGIANATO E AGRICOLTURA DI TRENTO",Trento,TN,Italia,www.tn.camcom.it,46.0669328,11.1228213,200.0,Uffici Pubblici,2013-01-10,Via Calepina,13,False,True,False,True,False,True,Dislivello in percentuale: 5.0; Lunghezza in cm.: 201.0,yes
239,ab_1313239,CAMPI SPORTIVI c/o RESIDENZA UNIVERSITARIA SANTA MARGHERITA,Trento,TN,Italia,www.operauni.tn.it,46.068298,11.117751,0.0,Impianti Sportivi,2013-11-29,Via Santa Margherita,13,False,True,False,True,False,False, ,limited
240,ab_355240,CAMPO ATLETICA LEGGERA - C.O.N.I.,Trento,TN,Italia,,46.0801693,11.1171418,200.0,Impianti Sportivi,2010-05-05,Via Maccani,2,False,True,True,False,True,False, ,yes
241,ab_151241,CANTINE DI TORRE MIRANA - COMUNE DI TRENTO ,Trento,TN,Italia,www.comunetrento.tn.it,46.0695,11.12112,229.0,Uffici Pubblici,2013-01-16,Via Belenzani,3,False,True,False,True,False,True,Dislivello in percentuale: 8.3; Lunghezza in cm.: 88.0,yes
242,ab_211242,CAPPELLA OSPEDALE S. CHIARA,Trento,TN,Italia,,46.0578948,11.1329703,,Edifici di Culto,2010-04-13,Largo Medaglie D'oro,1,False,True,False,False,False,True,Dislivello in percentuale: 5.0; Lunghezza in cm.: 30.0,yes
243,ab_745243,CAPPELLA VANTINI DI PALAZZO THUN - COMUNE DI TRENTO ,Trento,TN,Italia,www.comunetrento.it,46.0689399,11.1213617,200.0,Centri e sale culturali,2010-07-15,Via Belenzani,3,False,True,False,True,True,False, ,yes
244,ab_335244,CARITAS DIOCESANA TRENTO,Trento,TN,Italia,www.webdiocesi.chiesacattolica.it,46.0634724,11.1216852,180.0,Associazioni,2010-05-18,Via Endrici,27,False,True,False,False,True,False, ,yes
245,ab_576245,CASA CIVICA DI RIPOSO,Trento,TN,Italia,www.civicatnapsp.it,46.0645971,11.126757,200.0,Strutture Residenziali,2010-07-08,Via San Giovanni Bosco,10,False,True,False,True,False,True,Dislivello in percentuale: 6.0; Lunghezza in cm.: 2000.0,yes
246,ab_46246,CASA DEL CIOCCOLATO,Trento,TN,Italia,,46.06872,11.12109,221.0,Pasticcerie,2013-01-23,Via Belenzani,21,False,True,False,False,False,True,Dislivello in percentuale: 15.3; Lunghezza in cm.: 95.0,yes
247,ab_256247,CASA DI CURA VILLA BIANCA,Trento,TN,Italia,wwww.trento1.cardionet.it,46.0625758,11.1262886,190.0,Ospedali,2010-05-04,Via Piave 78,,False,True,False,True,True,False, ,yes
248,ab_212248,CASANOVA CAFE',Trento,TN,Italia,,46.0579492,11.1325833,180.0,Bar,2010-04-13,Largo Medaglie D'oro,5,False,True,False,False,True,False, ,yes
249,ab_1416249,CASSA RURALE ALTO GARDA filiale TRENTO,Trento,TN,Italia,www.cr-altogarda.net,46.05989,11.119452,200.0,Bancomat,2017-11-15,Via Fratelli Perini,33/35,False,True,False,False,False,False, ,limited
250,ab_190250,CASSA RURALE DELLA VALLE DEI LAGHI,Trento,TN,Italia,www.cr-vallelaghi.net,46.05998,11.11998,192.0,Bancomat,2010-02-09,Via Perini,35,False,True,False,False,False,True,Dislivello in percentuale: 11.7; Lunghezza in cm.: 29.0,yes
251,ab_259251,CASSA RURALE DI ALDENO E CADINE (esterno),Trento,TN,Italia,,46.0665898,11.1176884,200.0,Bancomat,2013-01-22,Via Verdi 19,,False,True,False,False,True,False, ,yes
252,ab_260252,CASSA RURALE DI ALDENO E CADINE (interno),Trento,TN,Italia,,46.0665858,11.1176884,190.0,Bancomat,2013-01-22,Via Verdi 19,,False,True,False,False,True,False, ,yes
253,ab_373253,CASSA RURALE DI ALDENO E CADINE,Trento,TN,Italia,,46.0922438,11.1153302,200.0,Bancomat,2010-08-04,Via Brennero,256/A,False,False,False,False,False,False, ,no
254,ab_68254,CASSA RURALE DI ALDENO E CADINE,Trento,TN,Italia,,46.06771,11.12578,195.0,Bancomat,2009-11-02,Via Galilei,11,False,True,False,False,False,False, ,limited
255,ab_301255,CASSA RURALE DI TRENTO ,Trento,TN,Italia,,46.0668257,11.1293616,180.0,Bancomat,2010-05-25,Via Grazioli,38,False,True,False,False,True,False, ,yes
256,ab_372256,CASSA RURALE DI TRENTO ,Trento,TN,Italia,,46.0920846,11.1153921,200.0,Bancomat,2010-08-04,Via Brennero,320,False,False,False,False,False,False, ,no
257,ab_1319257,CASSA RURALE DI TRENTO,Trento,TN,Italia,www.cassaruraleditrento.it,46.070709,11.058723,0.0,Bancomat,2013-12-04,Piazza Oveno,13,False,False,False,False,False,True,Dislivello in percentuale: 4.0; Lunghezza in cm.: 628.0,limited
258,ab_1323258,CASSA RURALE DI TRENTO,Trento,TN,Italia,http://www.cassaruraleditrento.it,46.03893,11.05684,0.0,Bancomat,2013-12-04,Strada Di Vason Localita' Vason,,False,False,False,False,False,False, ,no
259,ab_173259,CASSA RURALE DI TRENTO,Trento,TN,Italia,,46.06476,11.12324,195.0,Bancomat,2010-02-02,Via S. Croce,,False,True,False,False,False,False, ,limited
260,ab_206260,CASSA RURALE DI TRENTO,Trento,TN,Italia,,46.0577265,11.1327659,180.0,Bancomat,2010-04-13,Largo Medaglie D'oro,,False,True,False,False,True,False, ,yes
261,ab_233261,CASSA RURALE DI TRENTO,Trento,TN,Italia,,46.0494448,11.1227919,190.0,Bancomat,2010-04-29,Via Degasperi,6,False,True,False,False,False,False, ,limited
262,ab_254262,CASSA RURALE DI TRENTO,Trento,TN,Italia,,46.0655235,11.1318642,190.0,Bancomat,2010-04-27,Via Giovanelli 11,,False,True,False,False,True,False, ,yes
263,ab_325263,CASSA RURALE DI TRENTO,Trento,TN,Italia,,46.0514496,11.1240989,180.0,Bancomat,2010-05-17,Via Gandhi,10,False,True,False,False,True,False, ,yes
264,ab_388264,CASSA RURALE DI TRENTO,Trento,TN,Italia,,46.067082,11.115096,200.0,Bancomat,2010-04-21,Piazza Ezio Mosna,19,False,True,False,False,False,False, ,limited
265,ab_65265,CASSA RURALE DI TRENTO,Trento,TN,Italia,,46.07005,11.12419,222.0,Bancomat,2009-10-30,Via Manci,85,False,True,False,False,False,False, ,limited
266,ab_79266,CASSA RURALE DI TRENTO,Trento,TN,Italia,,46.06956,11.1211,190.0,Bancomat,2009-11-26,Via Belenzani,4,False,True,False,False,False,False, ,limited
267,ab_196267,CASSA RURALE PINETANA FORNACE E SEREGNANO,Trento,TN,Italia,,46.06221,11.12468,218.0,Bancomat,2010-03-03,Via Piave,20,False,True,False,False,False,False, ,limited
268,ab_137268,CASTELLO DEL BUONCONSIGLIO,Trento,TN,Italia,www.buonconsiglio.it,46.07181,11.12611,204.0,Edifici Storici,2018-03-05,Via Bernardo Clesio,5,False,True,False,True,False,True,Dislivello in percentuale: 18.0; Lunghezza in cm.: 1200.0,yes
269,ab_114269,CATTEDRALE DI SAN VIGILIO - DUOMO,Trento,TN,Italia,,46.067412,11.121297,260.0,Edifici di Culto,2013-01-16,Piazza Duomo,,False,True,False,False,False,True,Dislivello in percentuale: 16.0; Lunghezza in cm.: 66.0,yes
270,ab_578270,CENTRO ALLOGGI A.T.S.M.,Trento,TN,Italia,www.atsm-cfm.org,46.071042,11.124637,200.0,Strutture Residenziali,2013-01-04,Via Suffragio,53,False,True,False,True,False,False, ,limited
271,ab_334271,CENTRO ANTIVIOLENZA,Trento,TN,Italia,www.centroantiviolenzatn.it,46.0734942,11.1209013,180.0,Associazioni,2010-05-14,Via Dogana,1,False,True,False,False,True,False, ,yes
272,ab_634272,CENTRO BERNARDO CLESIO,Trento,TN,Italia,,46.0654969,11.1258503,200.0,Centri e sale culturali,2013-01-14,Via Barbacovi,4,False,True,False,False,True,False, ,yes
273,ab_531273,CENTRO CONGRESSI PANORAMA,Trento,TN,Italia,www.operauni.tn.it,46.0660794,11.099928,420.0,Centri e sale culturali,2010-07-26,Strada Della Funivia,66,False,False,False,True,False,True,Dislivello in percentuale: 6.3; Lunghezza in cm.: 300.0,limited
274,ab_513274,CENTRO DI DOCUMENTAZIONE EUROPEA - PAT,Trento,TN,Italia,www.cde.provincia.tn.it,46.0732112,11.1218254,200.0,Uffici Pubblici,2010-07-23,Via Romagnosi,"""",False,False,False,True,False,False, ,no
275,ab_223275,CENTRO DI RICERCA E TUTELA DEI CONSUMATORI E DEGLI UTENTI,Trento,TN,Italia,www.centroconsumatori.tn.it,46.072167,11.1234695,200.0,Uffici Pubblici,2010-03-09,Via Petrarca,32,False,True,False,False,False,False, ,limited
276,ab_429276,CENTRO GOMMA,Trento,TN,Italia,,46.0716641,11.125949,200.0,Riparazione Autovetture,2010-08-23,Piazza Mostra,27,False,False,False,False,False,False, ,no
277,ab_343277,CENTRO ORTOPEDICO TRENTINO,Trento,TN,Italia,,46.0625822,11.1302147,180.0,Ortopedie e Sanitarie,2010-05-25,Via Milano,41,False,True,False,False,True,False, ,yes
278,ab_706278,CENTRO PER L'IMPIEGO,Trento,TN,Italia,www.agenziadellavoro.tn.it,46.0841476,11.115201,200.0,Uffici Pubblici,2010-08-06,Via Maccani,80,False,True,False,False,False,False, ,limited
279,ab_645279,CENTRO PER LA FORMAZIONE ALLA SOLIDARIETA' INTERNAZIONALE - EX CONVENTO AGOSTINIANI,Trento,TN,Italia,www.tcic.eu,46.0697855,11.1255673,200.0,Uffici Pubblici,2013-01-25,Via San Marco,1,False,True,False,False,False,False, ,limited
280,ab_624280,CENTRO RISORSE INTEGRAZIONE AREA BISOGNI EDUCATIVI SPECIALI,Trento,TN,Italia,www.vivoscuola.it,46.0687101,11.1168629,200.0,Uffici Pubblici,2010-08-09,Via Tommaso Gar,10,False,True,False,True,False,False, ,limited
281,ab_655281,CENTRO SERVIZI CGIL DEL TRENTINO,Trento,TN,Italia,www.cgil.tn.it,46.0585815,11.1186475,200.0,Uffici Pubblici,2010-07-01,Via Giusti,49,False,True,False,False,False,True,Dislivello in percentuale: 7.9; Lunghezza in cm.: 800.0,yes
282,ab_62282,CENTRO SERVIZIO ANZIANI,Trento,TN,Italia,,46.067981,11.121538,214.0,Centri Sociali,2013-01-15,Via Belenzani,49,False,True,False,True,False,False, ,limited
283,ab_354283,CENTRO SPORTIVO A.T.A. BATTISTI,Trento,TN,Italia,www.tennis.atatrento.it,46.045539,11.121093,190.0,Impianti Sportivi,2010-05-05,Via Fersina,21,False,False,False,True,False,True,Dislivello in percentuale: 6.0; Lunghezza in cm.: 400.0,limited
284,ab_353284,CENTRO SPORTIVO ITALIANO,Trento,TN,Italia,,46.0691212,11.1169756,200.0,Uffici Pubblici,2010-05-05,Via Tommaso Gar,8,False,True,False,False,False,False, ,limited
285,ab_1326285,CENTRO SPORTIVO UNIVERSITA' MATTARELLO,Trento,TN,Italia,www.unisport.tn.it,46.008867,11.134192,0.0,Impianti Sportivi,2014-01-20,Via Delle Regole,,False,False,False,True,False,False, ,no
286,ab_1328286,CENTRO VOLO A VELA CUS,Trento,TN,Italia,www.voloavela.tn.it,46.017767277216855,11.126183867454529,0.0,Impianti Sportivi,2014-02-18,Via Lidorno,3,False,False,True,False,False,False, ,limited
287,ab_186287,CHE BANCA - GRUPPO MEDIOBANCA,Trento,TN,Italia,www.chebanca.it,46.06078,11.1241,222.0,Bancomat,2010-02-09,Via Perini,175,False,True,False,False,False,True,Dislivello in percentuale: 9.5; Lunghezza in cm.: 98.0,yes
288,ab_263288,CHIESA CRISTO RE,Trento,TN,Italia,,46.0772637,11.1174907,180.0,Edifici di Culto,2010-04-22,Piazza Del Concilio,,False,True,True,False,False,True,Dislivello in percentuale: 3.5; Lunghezza in cm.: 400.0,yes
289,ab_587289,CHIESA DEL SACRO CUORE,Trento,TN,Italia,,46.0533334,11.1297435,200.0,Edifici di Culto,2010-05-17,Viale Verona,143,False,False,False,False,False,False, ,no
290,ab_63290,CHIESA DELL'ANNUNZIATA,Trento,TN,Italia,,46.067877,11.121613,214.0,Edifici di Culto,2013-01-16,Via Belenzani,55,False,True,False,False,False,False, ,limited
291,ab_319291,CHIESA DI SAN CARLO BORROMEO,Trento,TN,Italia,,46.0667123,11.1190591,180.0,Edifici di Culto,2010-05-17,Via M. Gandhi,7,False,True,True,False,False,True,Dislivello in percentuale: 16.0; Lunghezza in cm.: 350.0,yes
292,ab_135292,CHIESA DI SAN FRANCESCO SAVERIO,Trento,TN,Italia,,46.06961,11.12096,241.0,Edifici di Culto,2013-01-23,Via Roma,57,False,True,False,False,False,False, ,limited
293,ab_316293,CHIESA DI SAN GIUSEPPE,Trento,TN,Italia,,46.0578373,11.1196797,180.0,Edifici di Culto,2010-05-17,Via Vittorio Veneto,18,False,True,True,False,False,False, ,yes
294,ab_98294,CHIESA DI SAN MARCO,Trento,TN,Italia,,46.06998,11.12537,156.0,Edifici di Culto,2013-01-25,Vicolo San Marco,3,False,True,False,False,False,True,Dislivello in percentuale: 15.0; Lunghezza in cm.: 74.0,yes
295,ab_108295,CHIESA DI SAN MARTINO,Trento,TN,Italia,,46.0762,11.12445,190.0,Edifici di Culto,2009-10-06,Via Brennero,22,False,True,True,False,False,True,Dislivello in percentuale: 5.0; Lunghezza in cm.: 958.0,yes
296,ab_160296,CHIESA DI SAN PIETRO,Trento,TN,Italia,,46.069486,11.124551,216.0,Edifici di Culto,2013-01-04,Via San Pietro,,False,True,True,False,False,False, ,yes
297,ab_588297,CHIESA DI SAN PIO X,Trento,TN,Italia,,46.0528135,11.1208073,200.0,Edifici di Culto,2010-05-17,Via San Pio X,34,False,False,True,False,False,False, ,limited
298,ab_318298,CHIESA DI SANT'ANTONIO,Trento,TN,Italia,,46.0583969,11.1306109,180.0,Edifici di Culto,2010-05-17,Via Bolghera,40,False,True,True,False,False,True,Dislivello in percentuale: 4.3; Lunghezza in cm.: 300.0,yes
299,ab_178299,CHIESA S. CHIARA,Trento,TN,Italia,,46.0634,11.12323,103.0,Edifici di Culto,2010-02-03,Via S. Croce,65,False,True,True,False,False,False, ,yes
300,ab_303300,CHIESA SPOSALIZIO DI MARIA VERGINE - BERTONIANI,Trento,TN,Italia,,46.0642915,11.1285536,180.0,Edifici di Culto,2010-05-14,Via San Bernardino,8,False,True,True,False,True,False, ,yes
301,ab_171301,CHIESA SS. SACRAMENTO,Trento,TN,Italia,,46.06234,11.12381,221.0,Edifici di Culto,2010-02-02,Via S. Croce,,False,True,False,False,True,True,Dislivello in percentuale: 7.3; Lunghezza in cm.: 642.0,yes
302,ab_1320302,CHIESA VASON,Trento,TN,Italia,,46.03907,11.057573,0.0,Edifici di Culto,2013-12-04,Strada Di Vason Localita' Vason,,False,False,False,False,False,False, ,no
303,ab_662303,CIGL DEL TRENTINO,Trento,TN,Italia,www.cigl.tn.it,46.0568666,11.1181927,200.0,Uffici Pubblici,2010-07-13,Via Dei Muredei,8,False,True,False,True,False,False, ,limited
304,ab_565304,CIMA PNEUMATICI,Trento,TN,Italia,,46.0724524,11.1237509,200.0,Riparazione Autovetture,2010-07-07,Via Petrarca,1/A,False,False,False,False,False,False, ,no
305,ab_121305,CINEMA ASTRA,Trento,TN,Italia,www.cineworld.info,46.0756123,11.1191714,0.0,Cinema,2016-11-02,Corso Buonarotti,16,False,True,False,True,False,False, ,limited
306,ab_124306,CINEMA MULTISALA MODENA,Trento,TN,Italia,www.cineworldtrento.it,46.066963,11.12624,230.0,Cinema,2016-05-03,Via S. Francesco D'assisi,8/A,False,True,False,True,False,True,Dislivello in percentuale: 19.0; Lunghezza in cm.: 2000.0,yes
307,ab_122307,CINEMA NUOVO ROMA,Trento,TN,Italia,www.cineworld.info,46.0614124,11.1247703,250.0,Cinema,2009-12-10,Corso Tre Novembre,35,False,True,False,True,False,False, ,limited
308,ab_123308,CINEMA VITTORIA,Trento,TN,Italia,www.cineworld.info,46.07001,11.12414,131.0,Cinema,2013-02-01,Via Manci,"""",False,True,True,True,True,False, ,yes
309,ab_619309,CINFORMI,Trento,TN,Italia,www.cinformi.it,46.091365,11.1172002,200.0,Uffici Pubblici,2010-06-24,Via Zambra,11,False,True,False,True,False,True,Dislivello in percentuale: 4.1; Lunghezza in cm.: 2300.0,yes
310,ab_1317310,CIRCOSCRIZIONE MONTE BONDONE,Trento,TN,Italia,www.comune.trento.it,46.071896,11.059871,0.0,Uffici Pubblici,2013-12-04,Via Di Revolta,4,False,True,False,False,False,False, ,limited
311,ab_357311,COMANDO PROVINCIALE CARABINIERI DI TRENTO,Trento,TN,Italia,www.carabinieri.it,46.0648741,11.1282018,200.0,Carabinieri - Guardia di Finanza - Polizia - Polizia Municipale - Vigili del Fuoco,2013-02-01,Via Barbacovi,24,False,True,False,True,False,False, ,limited
312,ab_669312,COMMISSARIATO DEL GOVERNO PER LA PROVINCIA DI TRENTO,Trento,TN,Italia,www.prefettura.it/trento,46.0621724,11.1250495,200.0,Uffici Giudiziari,2010-07-13,Via Piave,1,False,True,False,True,False,True,Dislivello in percentuale: 5.0; Lunghezza in cm.: 1000.0,yes
313,ab_656313,COMPRENSORIO DELLA VALLE DELL'ADIGE,Trento,TN,Italia,www.comprensorioc5.tn.it,46.091365,11.1172002,200.0,Uffici Pubblici,2010-06-24,Via Zambra,11,False,True,False,False,False,False, ,limited
314,ab_708314,CONFESERCENTI DEL TRENTINO,Trento,TN,Italia,www.confesercenti.it,46.093154,11.1062525,200.0,Uffici Pubblici,2010-08-06,Via Maccani,207,False,False,False,False,False,False, ,no
315,ab_786315,CONSIGLIERA DI PARITA',Trento,TN,Italia,www.pariopportunita.provincia.tn.it,46.0746387,11.1221533,200.0,Uffici Pubblici,2010-08-11,Via Jacopo Aconcio,5,False,True,False,True,False,False, ,limited
316,ab_638316,CONSIGLIO REGIONALE - SALA DI RAPPRESENTANZA,Trento,TN,Italia,www.consiglio.regione.taa.it,46.072283,11.1207961,200.0,Uffici Pubblici,2010-07-26,Piazza Dante,16,False,True,False,True,False,False, ,limited
317,ab_253317,"CONSULTORIO DI TRENTO PER IL SINGOLO, LA COPPIA E LA FAMIGLIA",Trento,TN,Italia,www.apss.tn.it,46.0620141,11.1277653,190.0,Ambulatori Medici,2010-04-27,Via Malta,12,False,True,False,True,False,True,Dislivello in percentuale: 6.0; Lunghezza in cm.: 3000.0,yes
318,ab_356318,COOPERATIVA ARIANNA,Trento,TN,Italia,www.arianna.coop,46.066536,11.1260075,200.0,Cooperative e Laboratori Sociali,2013-01-14,Via S. Francesco D'assisi,10,False,True,False,True,False,False, ,limited
319,ab_782319,"COOPERATIVA F.A.I. (FAMIGLIA, ANZIANI, INFANZIA)",Trento,TN,Italia,www.faicoop.com,46.0533996,11.1257565,200.0,Cooperative e Laboratori Sociali,2010-07-13,Via Gramsci,48/A,False,True,False,False,False,False, ,limited
320,ab_1500320,COORDINAMENTO CIRCOLI PENSIONATI ED ANZIANI DELLA PROVINCIA DI TRENTO,Trento,TN,Italia,www.circolitn.altervista.org,46.060606,11.123717,200.0,Associazioni,2019-06-10,Via Sighele,5,False,True,False,False,False,False, ,limited
321,ab_21321,CORNER CAFFE' BAR BIANCO,Trento,TN,Italia,,46.068995,11.119038,235.0,Bar,2013-01-21,Via San Giovanni,34,False,True,False,True,False,False, ,limited
322,ab_202322,CREDEM,Trento,TN,Italia,,46.07184,11.1223,224.0,Bancomat,2010-02-24,Via Gazzoletti,35,False,True,False,False,True,False, ,yes
323,ab_188323,CREDITO VALTELLINESE ,Trento,TN,Italia,,46.0601,11.12311,247.0,Bancomat,2010-02-09,Via Perini,24,False,True,False,False,False,True,Dislivello in percentuale: 6.1; Lunghezza in cm.: 17.0,yes
324,ab_45324,CREDITO VALTELLINESE,Trento,TN,Italia,,46.06725,11.12228,130.0,Bancomat,2009-11-12,Via Dordi,5,False,True,False,False,False,False, ,limited
325,ab_410325,Centro Servizi Volontariato Trentino,Trento,TN,Italia,www.volontariatotrentino.it,46.069822,11.118041,200.0,Associazioni,2013-01-21,Piazzetta Leonardo Da Vinci,2,False,True,False,False,False,True,Dislivello in percentuale: 7.2; Lunghezza in cm.: 230.0,yes
326,ab_283326,Centro Teatro Ragazzi ,Trento,TN,Italia,,46.0499184,11.1328933,180.0,Teatri e Auditorium,2010-05-17,Viale Degli Olmi,26,False,False,True,True,True,True,Dislivello in percentuale: 7.0; Lunghezza in cm.: 1100.0,yes
327,ab_358327,Comando Provinciale Vigili del Fuoco,Trento,TN,Italia,www.vvftrento.it,46.0766559,11.1227336,200.0,Carabinieri - Guardia di Finanza - Polizia - Polizia Municipale - Vigili del Fuoco,2010-06-30,Via Secondo Da Trento,2,False,True,False,False,True,False, ,yes
328,ab_737328,DA GUIDO - OSTERIA CON CUCINA,Trento,TN,Italia,www.osteriadaguido.com,46.070343,11.125889,200.0,Osterie / Trattorie,2013-01-30,Parco San Marco,,False,True,False,False,True,False, ,yes
329,ab_583329,DEMATTÉ FRUTTA E VERDURA,Trento,TN,Italia,,46.067685,11.120857,200.0,Frutta e Verdura,2013-01-16,Piazza Duomo,38-39,False,True,False,False,False,True,Dislivello in percentuale: 17.4; Lunghezza in cm.: 81.0,yes
330,ab_639330,DIPARTIMENTO AFFARI RELAZIONI ISTITUZIONALI,Trento,TN,Italia,www.provincia.tn.it,46.072283,11.1207961,200.0,Uffici Pubblici,2010-06-30,Piazza Dante,15,False,True,False,True,False,False, ,limited
331,ab_683331,DIPARTIMENTO AGRICOLTURA E ALIMENTAZIONE,Trento,TN,Italia,wwww.provincia.tn.it,46.0948131,11.1152147,200.0,Uffici Pubblici,2010-07-16,Via Trener,3,False,True,False,True,False,True,Dislivello in percentuale: 9.5; Lunghezza in cm.: 1500.0,yes
332,ab_120332,DIPARTIMENTO DI ECONOMIA E MANAGEMENT,Trento,TN,Italia,www.unitn.it/economia,46.0664636,11.1174824,240.0,Scuole e universita,2016-05-03,Via Inama,1,False,True,False,True,False,False, ,limited
333,ab_1056333,DIPARTIMENTO DI LETTERE E FILOSOFIA,Trento,TN,Italia,www.unitn.it/lettere,46.067363,11.117236,0.0,Scuole e universita,2012-11-06,Via Tommaso Gar,14,False,True,False,True,False,False, ,limited
334,ab_115334,DIPARTIMENTO DI SOCIOLOGIA E RICERCA SOCIALE,Trento,TN,Italia,www.sociologia.unitn.it,46.066625,11.119334,230.0,Scuole e universita,2016-05-03,Via Verdi,26,False,True,False,True,False,True,Dislivello in percentuale: 8.4; Lunghezza in cm.: 127.0,yes
335,ab_684335,"DIPARTIMENTO INDUSTRIA, ARTIGIANATO E MINIERE",Trento,TN,Italia,wwww.provincia.tn.it,46.0948131,11.1152147,200.0,Uffici Pubblici,2010-07-16,Via Trener,3,False,True,False,True,False,True,Dislivello in percentuale: 9.5; Lunghezza in cm.: 1500.0,yes
336,ab_784336,DIPARTIMENTO ISTRUZIONE,Trento,TN,Italia,wwww.provincia.tn.it,46.0906082,11.1192757,200.0,Uffici Pubblici,2010-06-18,Via Gilli,3,False,True,False,True,False,True,Dislivello in percentuale: 8.5; Lunghezza in cm.: 2700.0,yes
337,ab_676337,DIPARTIMENTO POLITICHE SANITARIE,Trento,TN,Italia,wwww.provincia.tn.it,46.0906942,11.118853,200.0,Uffici Pubblici,2010-06-09,Via Gilli,4,False,True,False,True,False,True,Dislivello in percentuale: 5.0; Lunghezza in cm.: 1700.0,yes
338,ab_785338,DIPARTIMENTO POLITICHE SOCIALI E DEL LAVORO,Trento,TN,Italia,wwww.provincia.tn.it,46.0906742,11.118853,200.0,Uffici Pubblici,2010-06-18,Via Gilli,4,False,True,False,True,False,True,Dislivello in percentuale: 5.0; Lunghezza in cm.: 1700.0,yes
339,ab_692339,DIPARTIMENTO PROTEZIONE CIVILE E INFRASTRUTTURE,Trento,TN,Italia,wwww.provincia.tn.it,46.072511,11.121801,200.0,Uffici Pubblici,2013-03-04,Via Vannetti,41,False,True,False,False,False,True,Dislivello in percentuale: 6.2; Lunghezza in cm.: 633.0,yes
340,ab_685340,DIPARTIMENTO RISORSE FORESTALI E MONTANE,Trento,TN,Italia,wwww.provincia.tn.it,46.0948131,11.1152147,200.0,Uffici Pubblici,2010-07-16,Via Trener,3,False,False,False,True,False,False, ,no
341,ab_665341,"DIPARTIMENTO TURISMO, COMMERCIO, PROMOZIONE E INTERNAZIONALIZZAZIONE",Trento,TN,Italia,www.provincia.tn.it,46.0732112,11.1218254,200.0,Uffici Pubblici,2010-07-23,Via Romagnosi,"""",False,False,False,True,False,True,Dislivello in percentuale: 8.0; Lunghezza in cm.: 1400.0,limited
342,ab_640342,DIPARTIMENTO URBANISTICA E AMBIENTE,Trento,TN,Italia,www.provincia.tn.it,46.0721708,11.1215888,200.0,Uffici Pubblici,2010-07-23,Via Vannetti,32,False,True,False,True,False,True,Dislivello in percentuale: 11.0; Lunghezza in cm.: 300.0,yes
343,ab_490343,DOC ,Trento,TN,Italia,www.doctrento.it,46.0637814,11.1310344,200.0,Ristoranti,2010-07-14,Via Milano,148,False,True,False,True,False,False, ,limited
344,ab_612344,DOCTOR GLASS,Trento,TN,Italia,,46.0923744,11.1156126,200.0,Riparazione Autovetture,2010-08-06,Via Del Brennero,140,False,False,False,False,False,True,Dislivello in percentuale: 7.3; Lunghezza in cm.: 68.0,limited
345,ab_616345,DOLOMITI GOMME SRL,Trento,TN,Italia,www.dolomitigomme.com,46.0466647,11.1304653,200.0,Riparazione Autovetture,2010-08-09,Viale Verona,190/24,False,False,False,False,False,False, ,no
346,ab_427346,DORIGATTI AUTO SNC,Trento,TN,Italia,,46.0580451,11.1320798,200.0,Riparazione Autovetture,2010-08-23,Via Bolghera,59,False,True,False,False,True,False, ,yes
347,ab_712347,DRINKING TEAM,Trento,TN,Italia,,46.087412,11.1197527,200.0,Paninoteche,2010-08-04,Via Pranzelores,46,False,False,False,True,False,False, ,no
348,ab_736348,DUE GIGANTI,Trento,TN,Italia,,46.068622,11.123828,200.0,Ristoranti,2013-01-11,Via Del Simonino,14,False,False,False,False,False,False, ,no
349,ab_80349,DUOMO 34 CAFE',Trento,TN,Italia,,46.067549,11.120827,229.0,Bar,2013-01-16,Piazza Duomo,,False,True,False,False,False,False, ,limited
350,ab_517350,EIS CENTER,Trento,TN,Italia,,46.1842743,11.1239215,200.0,Gelaterie,2010-07-14,Via Del Brennero,30,False,True,False,False,False,True,Dislivello in percentuale: 51.0; Lunghezza in cm.: 10.0,yes
351,ab_798351,ELISA,Trento,TN,Italia,www.bbelisa.com,46.0595906,11.127682,200.0,Bed & Breakfast,2010-09-03,Viale Rovereto,17,False,True,False,False,True,False, ,yes
352,ab_605352,ENOTECA DEL CORSO,Trento,TN,Italia,,46.0614452,11.1242711,200.0,Enoteche,2010-06-28,Corso 3 Novembre,64,False,False,False,False,False,True,Dislivello in percentuale: 13.5; Lunghezza in cm.: 38.0,limited
353,ab_332353,ENTE NAZIONALE SORDOMUTI ,Trento,TN,Italia,www.enstrento.it,46.0643716,11.1281215,180.0,Associazioni,2010-05-20,Via San Bernardino,4,False,True,False,False,True,False, ,yes
354,ab_383354,ERBORISTERIA ARNICA,Trento,TN,Italia,,46.0654506,11.1230189,200.0,Erboristerie,2013-01-30,Via Degli Orti,29,False,False,False,False,False,False, ,no
355,ab_384355,ERBORISTERIA DROGHERIA SANTONI,Trento,TN,Italia,,46.0657695,11.1229396,200.0,Erboristerie,2013-01-09,Via Mazzini,37,False,False,False,False,False,False, ,no
356,ab_718356,ERBORISTERIA SERENA - COSMESI NATURALE,Trento,TN,Italia,,46.0958196,11.118455,200.0,Erboristerie,2010-08-05,Via Trener,16,False,False,False,False,False,False, ,no
357,ab_606357,ERBORISTERIA SPAZIO VERDE,Trento,TN,Italia,,46.0609564,11.124796,200.0,Erboristerie,2010-06-28,Corso 3 Novembre,54,False,False,False,False,False,True,Dislivello in percentuale: 10.5; Lunghezza in cm.: 144.0,limited
358,ab_770358,ERBORISTERIA STARBENE,Trento,TN,Italia,,46.0638891,11.1216995,200.0,Erboristerie,2010-06-29,Via 24 Maggio,4,False,True,False,False,True,False, ,yes
359,ab_418359,EUROBRICO,Trento,TN,Italia,www.eurobrico.com,46.0916669,11.1145103,200.0,Attivita commerciali,2010-08-23,Via Del Brennero,151,False,False,False,False,False,False, ,no
360,ab_731360,EUROP ASSISTANCE,Trento,TN,Italia,www.trapasso.eu,46.069825,11.117735,200.0,Riparazione Autovetture,2013-01-21,Piazza Leonardo Da Vinci,,False,True,False,False,True,False, ,yes
361,ab_403361,EUROPCAR,Trento,TN,Italia,,46.0701274,11.1196209,200.0,Autonoleggi,2010-08-16,Vai Torre Vanga,18,False,False,False,False,False,False, ,no
362,ab_568362,EXTASY PUB CAFFÉ,Trento,TN,Italia,,46.0724524,11.1237509,200.0,Bar,2010-07-07,Via Petrarca,"""",False,False,False,True,False,True,Dislivello in percentuale: 9.6; Lunghezza in cm.: 61.0,limited
363,ab_371363,Erboristeria Non solo Erbe,Trento,TN,Italia,,46.0920846,11.1153921,200.0,Erboristerie,2010-08-04,Via Brennero,320,False,False,False,False,False,False, ,no
364,ab_330364,Estuario onlus - Associazione per il sostegno e l'auto mutuo aiuto nel disagio psichico,Trento,TN,Italia,www.estuario.it,46.060217,11.123794,180.0,Associazioni,2010-05-20,Via Sighele,9,False,True,False,True,False,False, ,limited
365,ab_119365,FACOLTA' DI GIURISPRUDENZA,Trento,TN,Italia,www.unitn.it/giurisprudenza,46.0659623,11.119198,250.0,Scuole e universita,2016-05-03,Via Verdi,53,False,True,False,True,False,False, ,limited
366,ab_716366,FARMACIA  AI SOLTERI,Trento,TN,Italia,,46.0921908,11.1177383,200.0,Farmacie,2010-08-05,Via Lunelli,40,False,True,False,False,False,False, ,limited
367,ab_87367,FARMACIA ALLA MADONNA,Trento,TN,Italia,,46.069866,11.123148,172.0,Farmacie,2013-01-25,Via Manci,42,False,True,False,False,True,False, ,yes
368,ab_207368,FARMACIA BOLGHERA,Trento,TN,Italia,www.farmaciabolghera.it,46.0578948,11.1329703,200.0,Farmacie,2010-04-13,Largo Medaglie D'oro,8,False,True,False,False,False,True,Dislivello in percentuale: 27.5; Lunghezza in cm.: 28.0,yes
369,ab_853369,FARMACIA COMUNALE 3,Trento,TN,Italia,,45.9034233,11.0428456,200.0,Farmacie,2010-11-15,Via Brione,23,False,True,False,False,False,True,Dislivello in percentuale: 8.3; Lunghezza in cm.: 1000.0,yes
370,ab_596370,FARMACIA COMUNALE CLARINA,Trento,TN,Italia,,46.0500962,11.1242938,200.0,Farmacie,2010-05-17,Via Degasperi,92/1,False,False,False,False,False,False, ,no
371,ab_322371,FARMACIA COMUNALE PIEDICASTELLO,Trento,TN,Italia,,46.0706406,11.1119991,180.0,Farmacie,2010-04-22,Via Brescia 19/a,,False,True,False,False,False,False, ,limited
372,ab_315372,FARMACIA COMUNALE PIO X,Trento,TN,Italia,,46.0539723,11.1208247,180.0,Farmacie,2010-05-17,Via San Pio X,77,False,False,False,False,False,True,Dislivello in percentuale: 14.9; Lunghezza in cm.: 106.6,limited
373,ab_255373,FARMACIA COMUNALE SAN CAMILLO,Trento,TN,Italia,www.farcomtrento.com,46.0656591,11.1319573,195.0,Farmacie,2010-04-27,Via Giovanelli 5,,False,True,False,False,False,True,Dislivello in percentuale: 5.0; Lunghezza in cm.: 99.0,yes
374,ab_261374,FARMACIA COMUNALE SAN GIUSEPPE,Trento,TN,Italia,www.farcomtrento.com,46.0582467,11.1215535,190.0,Farmacie,2010-04-22,Via Vittorio Veneto,39,False,True,False,False,False,True,Dislivello in percentuale: 8.0; Lunghezza in cm.: 80.0,yes
375,ab_40375,FARMACIA DALL'ARMI,Trento,TN,Italia,,46.06765,11.12186,162.0,Farmacie,2013-01-15,Piazza Duomo,10,False,True,False,False,False,True,Dislivello in percentuale: 19.2; Lunghezza in cm.: 83.0,yes
376,ab_1316376,FARMACIA DE GERLONI,Trento,TN,Italia,,46.073063,11.058525,0.0,Farmacie,2013-12-04,Strada Spineda,16,False,False,False,False,False,True,Dislivello in percentuale: 12.0; Lunghezza in cm.: 50.0,limited
377,ab_61377,FARMACIA GALLO,Trento,TN,Italia,,46.067449,11.124129,186.0,Farmacie,2013-01-04,Via Mantova,51,False,True,False,False,True,False, ,yes
378,ab_104378,FARMACIA GRANDI,Trento,TN,Italia,,46.0743348,11.1249288,216.0,Farmacie,2009-10-05,Via Manzoni,7/A,False,True,False,False,False,False, ,limited
379,ab_168379,FARMACIA S. CHIARA,Trento,TN,Italia,,46.06365,11.12345,224.0,Farmacie,2010-01-29,Via S. Croce,57,False,True,False,False,False,False, ,limited
380,ab_595380,FARMACIA SAN BARTOLOMEO,Trento,TN,Italia,,46.0539798,11.1291017,200.0,Farmacie,2010-05-17,Viale Verona,92,False,False,False,False,False,False, ,no
381,ab_262381,FARMACIA SAN LORENZO,Trento,TN,Italia,,46.076957,11.119139,180.0,Farmacie,2010-04-22,Via Fontana 29,,False,True,False,False,False,True,Dislivello in percentuale: 10.0; Lunghezza in cm.: 57.0,yes
382,ab_71382,FARMACIA SANTONI,Trento,TN,Italia,,46.06789,11.12227,230.0,Farmacie,2009-11-11,Piazza Pasi,20,False,True,False,False,True,True,Dislivello in percentuale: 9.7; Lunghezza in cm.: 81.0,yes
383,ab_125383,FEDERAZIONE TRENTINA DELLA COOPERAZIONE,Trento,TN,Italia,www.ftcoop.it,46.0750032,11.122061,150.0,Uffici Pubblici,2009-12-10,Via Segantini,10,False,True,False,True,False,False, ,limited
384,ab_426384,FERSINA VIAGGI,Trento,TN,Italia,www.fersinaviaggi.it,46.0580601,11.1265041,200.0,Agenzie viaggi e Promozione Turistica,2010-08-23,Via Marsala,13,False,True,False,False,True,False, ,yes
385,ab_510385,FIAB TRENTO - FEDERAZIONE ITALIANA AMICI DELLA BICICLETTA,Trento,TN,Italia,www.fiab-trento.it,46.065148,11.122281,200.0,Associazioni,2010-07-27,Via Al Torrione,6,False,True,False,True,False,True,Dislivello in percentuale: 10.0; Lunghezza in cm.: 1400.0,yes
386,ab_1077386,FIORERIA DA ALDO,Trento,TN,Italia,,46.06845,11.11903,0.0,Attivita commerciali,2010-09-13,Piazza Santa Maria Maggiore,30,False,False,False,False,False,True,Dislivello in percentuale: 18.0; Lunghezza in cm.: 73.0,limited
387,ab_1076387,FIORERIA FLORIS,Trento,TN,Italia,,46.063984,11.119706,0.0,Attivita commerciali,2010-09-13,Via Rosmini,67,False,False,False,False,False,False, ,no
388,ab_629388,FLAMBARD,Trento,TN,Italia,,46.0499886,11.1314937,200.0,Bar,2010-06-30,Via Degli Olmi,4,False,False,False,True,False,True,Dislivello in percentuale: 7.4; Lunghezza in cm.: 48.7,limited
389,ab_1075389,FLORART,Trento,TN,Italia,,46.06832,11.12421,0.0,Attivita commerciali,2010-09-13,Largo Carducci,10,False,False,True,False,False,False, ,limited
390,ab_127390,FONDAZIONE BRUNO KESSLER - SALA CONFERENZE,Trento,TN,Italia,www.fbk.eu,46.0638997,11.1234869,230.0,Centri e sale culturali,2013-04-29,Via Santa Croce,77,False,True,False,True,False,True,Dislivello in percentuale: 4.2; Lunghezza in cm.: 174.0,yes
391,ab_22391,FONDAZIONE FRANCO DEMARCHI,Trento,TN,Italia,www.fdemarchi.it,46.068675,11.119205,210.0,Associazioni,2016-05-03,Piazza Santa Maria Maggiore,7,False,True,False,True,False,False, ,limited
392,ab_112392,FORMAT - CENTRO AUDIOVISIVI,Trento,TN,Italia,www.format.provincia.tn.it,46.0674137,11.118169,0.0,Centri e sale culturali,2013-01-21,Via Zanella 10/2,,False,True,False,True,False,True,Dislivello in percentuale: 12.0; Lunghezza in cm.: 35.0,yes
393,ab_34393,FORST,Trento,TN,Italia,www.forst.it,46.06881,11.12259,217.0,Ristoranti,2013-01-15,Via Oss Mazzurana,35,False,False,False,True,True,False, ,limited
394,ab_1515394,FORTE BUS DE VELA DI CADINE,Trento,TN,Italia,www.museostorico.it,46.085006,11.070129,0.0,Punti di interesse,2016-08-10,Via Al Pasiel,,False,False,False,True,True,True,Dislivello in percentuale: 20.0; Lunghezza in cm.: 5000.0,yes
395,ab_558395,FOTO GOTTARDINI OTTICA SRL,Trento,TN,Italia,www.gottardini.it,46.069487,11.124545,200.0,Ottica,2013-01-10,Via San Pietro,24,False,True,False,False,True,False, ,yes
396,ab_380396,FRIENDS - PIZZERIA KEBAB,Trento,TN,Italia,,46.069585,11.118261,200.0,Pizzerie,2013-01-21,Via Prepositura,8,False,True,False,False,True,False, ,yes
397,ab_585397,FRUTTA E VERDURA DA LINA,Trento,TN,Italia,,46.0620013,11.1261783,200.0,Frutta e Verdura,2010-07-14,Via Giovanni A Prato,8,False,True,False,False,False,False, ,limited
398,ab_1506398,FUNIVIA TRENTO - SARDAGNA stazione a valle,Trento,TN,Italia,www.trentinotrasporti.it,46.069626,11.115644,200.0,Uffici Pubblici,2020-01-30,Lungadige Monte Grappa,,False,True,False,False,False,False, ,limited
399,ab_1507399,FUNIVIA TRENTO SARDAGNA stazione a monte,Trento,TN,Italia,,46.065978,11.102663,600.0,Uffici Pubblici,2020-01-30,Strada Alla Funivia,,False,True,False,True,False,True,Dislivello in percentuale: 16.0; Lunghezza in cm.: 2300.0,yes
400,ab_709400,GAIA,Trento,TN,Italia,www.risto3.it,46.0890708,11.1097177,200.0,Ristoranti,2010-08-06,Via Maccani,128,False,False,False,False,False,False, ,no
401,ab_92401,GALLERIA CIVICA DI TRENTO,Trento,TN,Italia,www.mart.trento.it,46.068253,11.121313,133.0,Gallerie arte,2013-10-15,Via Belenzani,44,False,True,False,True,False,False, ,limited
402,ab_347402,GALLERIA D'ARTE M.FOGOLINO - CENTRO CULTURALE,Trento,TN,Italia,,46.0664671,11.1238666,180.0,Gallerie arte,2013-01-09,Via S. Trinita',30,False,True,False,False,False,False, ,limited
403,ab_350403,GALLERIA D'ARTE TORRE VERDE,Trento,TN,Italia,,46.0708169,11.1235379,190.0,Gallerie arte,2013-01-14,Vic. Dell'adige,5,False,False,False,False,False,False, ,no
404,ab_129404,GALLERIE PIEDICASTELLO,Trento,TN,Italia,www.museostorico.tn.it,46.078913,11.1130071,320.0,Edifici Storici,2009-12-10,Piazza Di Piedicastello,,False,False,False,False,False,False, ,no
405,ab_273405,GARAGE TORRE VERDE,Trento,TN,Italia,,46.0711506,11.1237823,200.0,Parcheggi,2010-04-26,Via Torre Verde,40,False,False,False,False,False,True,Dislivello in percentuale: 10.0; Lunghezza in cm.: 1300.0,limited
406,ab_604406,GECELE,Trento,TN,Italia,www.eyewear.it,46.0690052,11.1219634,200.0,Ottica,2013-01-11,Via Delle Orne,20,False,False,False,False,True,False, ,limited
407,ab_701407,GELATERIA IGLOO,Trento,TN,Italia,,46.0771255,11.1180381,200.0,Gelaterie,2010-07-20,Via Scopoli,3,False,True,False,False,False,False, ,limited
408,ab_99408,GELATERIA ROBIN,Trento,TN,Italia,,46.070376,11.124655,194.0,Gelaterie,2013-02-28,Via Suffragio,86,False,True,False,False,False,False, ,limited
409,ab_773409,GELATERIA VIENNESE,Trento,TN,Italia,,46.0632822,11.1236094,200.0,Gelaterie,2010-06-14,Via Santa Croce,82,False,True,False,False,False,True,Dislivello in percentuale: 31.0; Lunghezza in cm.: 11.0,yes
410,ab_387410,GELATOMANIA,Trento,TN,Italia,,46.0675862,11.1221699,200.0,Gelaterie,2013-02-28,Via Garibaldi,9,False,False,True,False,False,False, ,limited
411,ab_1371411,GIARDINO DI PIAZZA DANTE,Trento,TN,Italia,,46.071548,11.120288,0.0,Parchi Pubblici,2014-11-19,Piazza Dante,,False,True,False,False,False,False, ,limited
412,ab_159412,GIGI'S CAFFE',Trento,TN,Italia,,46.07014,11.1198,233.0,Bar,2013-01-31,Via Pozzo,24,False,True,True,False,True,False, ,yes
413,ab_428413,GITAN VIAGGI SRL,Trento,TN,Italia,www.gitanviaggi.it,46.0587969,11.1274353,200.0,Agenzie viaggi e Promozione Turistica,2010-08-23,Viale Bolognini,2,False,True,False,False,True,True,Dislivello in percentuale: 18.7; Lunghezza in cm.: 347.0,yes
414,ab_603414,GRADO 12 ENOTECA,Trento,TN,Italia,,46.068419,11.1242347,200.0,Enoteche,2013-01-11,Largo Carducci,12,False,True,False,False,False,False, ,limited
415,ab_800415,GRAND HOTEL TRENTO,Trento,TN,Italia,www.grandhoteltrento.com,46.070867,11.121361,200.0,Alberghi / Hotel,2013-02-01,Via Alfieri,1,False,True,False,True,False,True,Dislivello in percentuale: 6.0; Lunghezza in cm.: 816.0,yes
416,ab_142416,GRAZIANO'S ,Trento,TN,Italia,,46.06595,11.12108,189.0,Fast Food,2013-01-30,Via Carlo Esterle,9,False,True,False,False,False,True,Dislivello in percentuale: 42.2; Lunghezza in cm.: 32.0,yes
417,ab_310417,GROM il gelato come una volta ,Trento,TN,Italia,www.grom.it,46.0673408,11.1209968,180.0,Bar,2013-01-16,Piazza Duomo,27,False,True,False,False,False,False, ,limited
418,ab_78418,GRUPPO DEUTSCHE BANK,Trento,TN,Italia,,46.07102,11.12344,215.0,Bancomat,2009-11-19,Via Torre Verde,36,False,True,False,False,False,False, ,limited
419,ab_399419,Globtrotter - Trentina viaggi,Trento,TN,Italia,www.globtrotter.it,46.0642114,11.1234317,200.0,Agenzie viaggi e Promozione Turistica,2010-08-19,Via Santa Croce,29,False,True,False,False,True,False, ,yes
420,ab_516420,HOME CARE,Trento,TN,Italia,www.homecare.unifarm.it,46.0383456,11.1158338,200.0,Ortopedie e Sanitarie,2010-07-19,Via Provina,3,False,False,False,True,False,True,Dislivello in percentuale: 14.4; Lunghezza in cm.: 100.0,limited
421,ab_799421,HOTEL AMERICA,Trento,TN,Italia,www.hotelamerica.it,46.071627,11.124532,200.0,Alberghi / Hotel,2013-01-04,Via Torre Verde,52,False,False,False,True,False,True,Dislivello in percentuale: 8.4; Lunghezza in cm.: 500.0,limited
422,ab_809422,HOTEL EVEREST,Trento,TN,Italia,www.hoteleverest.it,46.0783419,11.1184832,200.0,Alberghi / Hotel,2010-08-27,Corso Alpini,14,False,True,False,True,False,False, ,limited
423,ab_797423,HOTEL SPORTING TRENTO,Trento,TN,Italia,www.hotelsportingtrento.com,46.0517559,11.1118271,200.0,Alberghi / Hotel,2010-09-03,Via R. Da Sanseverino,125,False,False,False,True,False,False, ,no
424,ab_1385424,HOTEL VELA,Trento,TN,Italia,www.hotelvela.com,46.07432,11.10727,0.0,Alberghi / Hotel,2010-08-27,Via Santi Cosma E Damiano,21,False,False,False,True,False,False, ,no
425,ab_806425,HOTEL VENEZIA,Trento,TN,Italia,www.hotelveneziatn.it,46.067832,11.121351,200.0,Alberghi / Hotel,2013-01-23,Via Belenzani,70,False,False,False,False,False,False, ,no
426,ab_1426,Handicrea,Trento,TN,Italia,www.handicrea.it,46.07294,11.12536,189.0,Cooperative e Laboratori Sociali,2013-02-11,Via S. Martino,46,False,True,False,True,False,False, ,limited
427,ab_1074427,I FIORI DI FRENCY,Trento,TN,Italia,,46.0664,11.12079,0.0,Attivita commerciali,2010-09-13,Via Prati,22,False,False,False,False,False,False, ,no
428,ab_397428,I MONDI DI ALICE - Viaggi Vacanze,Trento,TN,Italia,www.imondidialice.it,46.070696,11.123545,200.0,Agenzie viaggi e Promozione Turistica,2010-08-20,Vicolo Dell'adige,11,False,True,False,False,True,False, ,yes
429,ab_240429,IL LIBERTINO,Trento,TN,Italia,,46.0710746,11.1131468,185.0,Ristoranti,2010-05-06,Piazza Piedicastello 4 - 6,,False,True,False,True,False,True,Dislivello in percentuale: 16.0; Lunghezza in cm.: 40.0,yes
430,ab_607430,IL PANIERE,Trento,TN,Italia,,46.0603972,11.121995,200.0,Panifici,2010-06-28,Via Perini,137,False,True,False,False,True,False, ,yes
431,ab_769431,IL PANIERE,Trento,TN,Italia,,46.0583943,11.1224154,200.0,Panifici,2010-07-01,Via Veneto,100,False,True,False,False,False,False, ,limited
432,ab_257432,IL PAPIRO,Trento,TN,Italia,www.libreriailpapiro.it,46.0663852,11.1305904,190.0,Librerie,2010-05-04,Via Grazioli 37,,False,True,False,False,False,False, ,limited
433,ab_77433,ILARY'S CAFE',Trento,TN,Italia,,46.070929,11.123461,211.0,Bar,2013-01-28,Vicolo Dell'adige,3,False,True,False,True,False,True,Dislivello in percentuale: 7.0; Lunghezza in cm.: 200.0,yes
434,ab_602434,INDAL SRL - CIOCCOLATO E CACAO,Trento,TN,Italia,,46.067734,11.123954,200.0,Dolciumi,2013-01-04,Via Mantova,28,False,True,False,False,True,False, ,yes
435,ab_766435,INDAL SRL,Trento,TN,Italia,,46.0641785,11.1215919,200.0,Dolciumi,2010-06-29,Via 24 Maggio,9,False,True,False,False,True,False, ,yes
436,ab_746436,INFRASTRUTTURE STRADALI E FERROVIARIE,Trento,TN,Italia,wwww.provincia.tn.it,46.0719662,11.1222282,200.0,Uffici Pubblici,2013-01-14,Via Gazzoletti,33,False,True,False,True,False,True,Dislivello in percentuale: 9.0; Lunghezza in cm.: 713.0,yes
437,ab_12437,INPS,Trento,TN,Italia,www.inps.it,46.0691,11.11927,230.0,Uffici Pubblici,2013-02-04,Via Orfane,8,False,True,False,True,False,True,Dislivello in percentuale: 8.5; Lunghezza in cm.: 700.0,yes
438,ab_697438,INTERCULTURA,Trento,TN,Italia,www.interculturatrento.it,46.058677,11.121518,200.0,Associazioni,2010-07-16,Via Bronzetti,29,False,True,False,True,False,True,Dislivello in percentuale: 7.0; Lunghezza in cm.: 470.0,yes
439,ab_620439,INTERNATIONAL BAR,Trento,TN,Italia,,46.0617288,11.1336416,200.0,Bar,2010-08-09,Piazza Vicenza,9/10,False,True,False,True,False,False, ,limited
440,ab_741440,ISIT - ISTITUTO UNIVERSITARIO PER INTERPRETI E TRADUTTORI,Trento,TN,Italia,www.isit.tn.it,46.0680795,11.1264644,200.0,Uffici Pubblici,2013-01-14,Vicolo Santa Maria Maddalena,22,False,True,False,True,True,False, ,yes
441,ab_32441,JUST CAFE DAM SNC,Trento,TN,Italia,,46.06844,11.12339,204.0,Bar,2013-01-11,Via Malpaga,20,False,False,False,True,False,False, ,no
442,ab_9442,KEBAB IL TURCO 4,Trento,TN,Italia,,46.06806,11.1206,199.0,Fast Food,2013-01-30,Via Cavour,29,False,True,False,False,True,False, ,yes
443,ab_158443,KEBAB SARA,Trento,TN,Italia,,46.06966,11.11906,233.0,Fast Food,2013-01-23,Via Roma,19,False,True,False,False,False,True,Dislivello in percentuale: 20.5; Lunghezza in cm.: 31.0,yes
444,ab_617444,KING CAR,Trento,TN,Italia,,46.0471951,11.1270559,200.0,Riparazione Autovetture,2010-08-09,Via Fermi,26,False,False,False,False,False,False, ,no
445,ab_177445,L'ANDALUSIA KEBAB,Trento,TN,Italia,,46.06573,11.12389,201.0,Fast Food,2013-01-31,Piazza Garzetti,13,False,True,True,False,True,False, ,yes
446,ab_771446,L'ANGOLO DELLE ERBE,Trento,TN,Italia,,46.056926,11.128522,0.0,Erboristerie,2019-01-23,Viale Verona,41,False,False,False,False,False,False, ,no
447,ab_618447,L'OFFICINA,Trento,TN,Italia,,46.0471951,11.127059,200.0,Riparazione Autovetture,2010-08-09,Via Fermi,26,False,False,False,False,False,False, ,no
448,ab_698448,L.I.L.A. TRENTINO,Trento,TN,Italia,www.lilatrentino.it,46.058677,11.121518,200.0,Associazioni,2010-07-16,Via Bronzetti,29,False,True,False,True,False,True,Dislivello in percentuale: 7.0; Lunghezza in cm.: 470.0,yes
449,ab_329449,L.I.L.T. Lega Italiana per la Lotta contro i Tumori,Trento,TN,Italia,www.legatumori.it,46.0604311,11.1253101,180.0,Associazioni,2010-05-17,Corso 3 Novembre,134,False,True,False,False,False,False, ,limited
450,ab_200450,LA  RIVISTERIA,Trento,TN,Italia,,46.06656,11.12202,250.0,Librerie,2013-01-09,Via S. Vigilio,21,False,True,False,False,False,False, ,limited
451,ab_1389451,LA BIBLIOTECA DEI RAGAZZI - PALAZZINA LIBERTY,Trento,TN,Italia,www.bibcom.trento.it,46.070904,11.121065,200.0,Biblioteche,2017-09-28,Piazza Dante,32,False,True,False,True,False,True,Dislivello in percentuale: 9.0; Lunghezza in cm.: 1320.0,yes
452,ab_515452,LA BIBLIOTECA DEI RAGAZZI,Trento,TN,Italia,www.bibcom.trento.it,46.069663,11.120251,200.0,Biblioteche,2013-01-23,Passaggio Peterlongo,3,False,True,False,True,False,True,Dislivello in percentuale: 15.0; Lunghezza in cm.: 20.0,yes
453,ab_386453,LA DELIZIA,Trento,TN,Italia,,46.0660008,11.1227875,200.0,Gelaterie,2013-02-28,Via Mazzini,20,False,False,False,False,True,False, ,limited
454,ab_385454,LA GELATERIA,Trento,TN,Italia,,46.0683092,11.1213567,200.0,Gelaterie,2013-01-23,Via Belenzani,50,False,True,False,False,False,False, ,limited
455,ab_559455,LA PANETTERIA DI GIOVANELLA NIVES,Trento,TN,Italia,,46.0774609,11.1195507,200.0,Panifici,2010-07-07,Piazza Generale Cantore,9,False,True,False,False,True,False, ,yes
456,ab_58456,LA POSADA,Trento,TN,Italia,,46.06835,11.12473,185.0,Ristoranti,2013-01-11,Largo Carducci,24,False,True,False,True,False,True,Dislivello in percentuale: 14.5; Lunghezza in cm.: 62.0,yes
457,ab_194457,LA RETE,Trento,TN,Italia,www.cooplarete.org,46.0608,11.11614,157.0,Cooperative e Laboratori Sociali,2010-02-16,Via Taramelli,8/10,False,False,False,True,False,False, ,no
458,ab_781458,LA RUOTA,Trento,TN,Italia,www.laruota.coop,46.0730641,11.122183,200.0,Cooperative e Laboratori Sociali,2010-07-26,Via Brennero,165,False,False,False,False,False,False, ,no
459,ab_198459,LA STUA,Trento,TN,Italia,,46.062387,11.1280688,195.0,Ristoranti,2010-03-03,Via Dei Mille,20,False,True,True,False,False,True,Dislivello in percentuale: 14.1; Lunghezza in cm.: 10.7,yes
460,ab_201460,LABORATORIO ANALISI ADIGE,Trento,TN,Italia,www.laboratorioadige.it,46.07232,11.12256,284.0,Laboratori di Analisi,2010-02-24,Via Gazzoletti,25,False,True,False,True,False,True,Dislivello in percentuale: 11.8; Lunghezza in cm.: 700.0,yes
461,ab_308461,LABORATORIO ANALISI DRUSO,Trento,TN,Italia,,46.06391,11.12295,196.0,Laboratori di Analisi,2010-05-25,Via Madruzzo,68,False,True,False,True,False,False, ,limited
462,ab_215462,LE DUE SPADE ,Trento,TN,Italia,,46.0670044,11.1202225,170.0,Osterie / Trattorie,2013-01-16,Via Don Arcangelo Rizzi,11,False,True,False,False,True,False, ,yes
463,ab_147463,LE SFIZIOSE,Trento,TN,Italia,,46.066744,11.120892,204.0,Fast Food,2013-01-22,Piazza D'arogno,13,False,True,False,False,False,False, ,limited
464,ab_1073464,LI' LA',Trento,TN,Italia,,46.06467,11.1216,0.0,Attivita commerciali,2010-09-13,Via Travai,39,False,True,False,False,False,True,Dislivello in percentuale: 28.0; Lunghezza in cm.: 36.0,yes
465,ab_1390465,LIBERCAFE' - PALAZZINA LIBERTY,Trento,TN,Italia,www.libercafe.it,46.070878,11.120989,200.0,Bar,2017-09-28,Piazza Dante,29,False,True,False,True,False,True,Dislivello in percentuale: 9.0; Lunghezza in cm.: 1320.0,yes
466,ab_400466,LIBERI TUTTI,Trento,TN,Italia,www.liberitutti.net,46.070062,11.1244423,200.0,Agenzie viaggi e Promozione Turistica,2010-08-19,Via San Pietro,3,False,True,False,False,True,False, ,yes
467,ab_199467,LIBRERIA - VIAGGERIA,Trento,TN,Italia,,46.0665,11.12246,184.0,Librerie,2013-01-09,Via S. Vigilio,20,False,True,False,False,False,True,Dislivello in percentuale: 16.2; Lunghezza in cm.: 81.0,yes
468,ab_249468,LIBRERIA ANCORA,Trento,TN,Italia,,46.0640685,11.123466,190.0,Librerie,2010-04-27,Vai Santa Croce,35,False,True,False,False,False,True,Dislivello in percentuale: 27.0; Lunghezza in cm.: 58.0,yes
469,ab_324469,LIBRERIA CARTOLERIA BENIGNI,Trento,TN,Italia,,46.067959,11.121544,180.0,Librerie,2013-01-15,Via Belenzani 51,,False,True,False,False,True,False, ,yes
470,ab_321470,LIBRERIA DISERTORI,Trento,TN,Italia,,46.0691218,11.1230799,180.0,Librerie,2013-01-11,Via Diaz 11,,False,False,True,False,True,False, ,yes
471,ab_248471,LIBRERIA DRAKE,Trento,TN,Italia,,46.0663465,11.1152559,200.0,Librerie,2010-04-26,Via Giuseppe Verdi,3,False,True,False,False,False,False, ,limited
472,ab_309472,LIBRERIA EINAUDI ELECTA,Trento,TN,Italia,www.einaudi.it,46.071028,11.126237,180.0,Librerie,2013-01-04,Piazza Mostra,8,False,True,False,False,False,False, ,limited
473,ab_717473,LIBRERIA GIUNTI AL PUNTO SPA,Trento,TN,Italia,www.giuntialpunto.it,46.0947884,11.1152304,200.0,Librerie,2010-08-05,Via Trener,16,False,False,False,False,False,False, ,no
474,ab_182474,LIBRERIA UBIK,Trento,TN,Italia,,46.06263,11.1237,218.0,Librerie,2010-03-03,Corso Tre Novembre,10/12,False,True,False,False,True,True,Dislivello in percentuale: 19.1; Lunghezza in cm.: 19.0,yes
475,ab_229475,LIBRERIA UNIVERSITARIA,Trento,TN,Italia,www.libreriauniversitaria.it,46.06465,11.12097,161.0,Librerie,2010-03-17,Via Travai,28,False,True,False,False,False,True,Dislivello in percentuale: 33.5; Lunghezza in cm.: 62.0,yes
476,ab_1114476,LICEO PRATI - AULA MAGNA,Trento,TN,Italia,www.liceoprati.it,46.066563,11.124701,200.0,Centri e sale culturali,2013-04-29,Via Ss. Trinita',36,False,True,False,True,False,True,Dislivello in percentuale: 7.7; Lunghezza in cm.: 687.0,yes
477,ab_754477,LICIA DI TAZZI & C,Trento,TN,Italia,,46.0723344,11.1281926,200.0,Frutta e Verdura,2010-08-02,Via Cervara,19,False,True,False,False,False,False, ,limited
478,ab_226478,LINE CAFE' CONTEMPORANEITY,Trento,TN,Italia,,46.0668891,11.1205348,180.0,Bar,2013-01-23,Via Verdi,75,False,True,False,True,False,True,Dislivello in percentuale: 18.3; Lunghezza in cm.: 136.0,yes
479,ab_756479,LOGOPEDIA,Trento,TN,Italia,www.logopedia.iaps.tn.it,46.0641212,11.127659,200.0,Ambulatori Medici,2010-07-14,Via Piave,108,False,True,False,False,False,True,Dislivello in percentuale: 20.0; Lunghezza in cm.: 670.0,yes
480,ab_779480,LUNELLI CARMEN E CARLA S.N.C.,Trento,TN,Italia,,46.0684122,11.1252456,200.0,Panifici,2013-01-11,Largo Carducci,48,False,False,True,False,True,False, ,yes
481,ab_501481,La Tana del Ghiro,Trento,TN,Italia,,46.0575934,11.1355669,200.0,Bar,2010-07-27,Via Anzoletti,14,False,True,False,False,True,False, ,yes
482,ab_366482,Libreria Giunti al Punto Spa,Trento,TN,Italia,www.giuntialpunto.it,46.0689054,11.1225649,200.0,Librerie,2010-08-04,Via Oss Mazzurana,45-47,False,False,False,False,False,False, ,no
483,ab_375483,Libreria Gulliver,Trento,TN,Italia,,46.0920846,11.1153921,200.0,Librerie,2010-08-04,Via Brennero,320,False,False,False,False,False,False, ,no
484,ab_793484,MALYBAR,Trento,TN,Italia,,46.058377,11.1223412,200.0,Bar,2010-07-01,Via Veneto,96,False,True,False,False,True,True,Dislivello in percentuale: 15.8; Lunghezza in cm.: 32.0,yes
485,ab_761485,MERA EMILIO S.N.C.,Trento,TN,Italia,,46.0657174,11.1229574,200.0,Frutta e Verdura,2013-01-09,Via 2 Androna Di Borgonuovo,1,False,True,False,False,True,False, ,yes
486,ab_53486,MILKY WALKY,Trento,TN,Italia,www.milkywalky.com,46.06705,11.122,199.0,Bar,2013-01-09,Via Garibaldi,27,False,True,False,True,False,True,Dislivello in percentuale: 14.8; Lunghezza in cm.: 86.0,yes
487,ab_205487,MINI BAR,Trento,TN,Italia,,46.0581109,11.1328964,180.0,Bar,2010-04-13,Via Gerola,7,False,True,False,False,True,False, ,yes
488,ab_93488,MINI BISTRO' DORDI,Trento,TN,Italia,,46.06727,11.12295,181.0,Bar,2013-01-04,Via Dordi,21,False,True,True,False,False,False, ,yes
489,ab_789489,MIRMAR SNC,Trento,TN,Italia,,46.0643369,11.1307227,200.0,Bar,2010-07-14,Via Barbacovi,40,False,True,False,True,False,True,Dislivello in percentuale: 9.0; Lunghezza in cm.: 220.0,yes
490,ab_232490,MORDI E FUGGI BAR,Trento,TN,Italia,,46.0497697,11.1221836,190.0,Bar,2010-04-29,Via Degasperi,8,False,True,False,True,False,False, ,limited
491,ab_671491,MOSCHEA COMUNITA' ISLAMICA DEL TRENTINO ALTO ADIGE,Trento,TN,Italia,,46.0551628,11.1219394,200.0,Edifici di Culto,2010-05-17,Via Vivaldi,15,False,True,False,False,False,False, ,limited
492,ab_417492,MOSER CICLI,Trento,TN,Italia,www.mosercicli.com,46.0672287,11.1254952,200.0,Attivita commerciali,2013-01-14,Via Calepina,65,False,True,False,False,False,False, ,limited
493,ab_557493,MOT,Trento,TN,Italia,www.motcenter.it,46.06779,11.1260165,0.0,Ottica,2013-01-14,Via Galilei,15,False,True,False,False,True,False, ,yes
494,ab_723494,MOTORIZZAZIONE CIVILE,Trento,TN,Italia,"www.motorizzazione,provincia.tn.it",46.0815273,11.1119896,200.0,Uffici Pubblici,2010-08-03,Via Lung'adige S. Nicolo',14,False,False,False,True,False,False, ,no
495,ab_1236495,MUSE - MUSEO DELLE SCIENZE,Trento,TN,Italia,www.muse.it,46.062247,11.113108,0.0,Musei,2016-05-03,Corso Del Lavoro E Della Scienza,3,False,True,False,True,False,False, ,limited
496,ab_377496,MUSEO DEL RAME - MUSEO NAVARINI,Trento,TN,Italia,www.navariniramoe.com,46.0371946,11.1046005,190.0,Musei,2010-08-05,Via Val Gola,22,False,False,False,False,True,False, ,limited
497,ab_117497,MUSEO DELLA SAT - PALAZZO SARACINI CRESSERI,Trento,TN,Italia,www.sat.tn.it,46.0699422,11.1232717,230.0,Edifici Storici,2016-05-03,Via Manci,57,False,True,False,True,False,False, ,limited
498,ab_140498,MUSEO DIOCESANO TRIDENTINO C/O PALAZZO PRETORIO,Trento,TN,Italia,www.museodiocesanotridentino.it,46.06758,11.12176,206.0,Edifici Storici,2013-01-16,Piazza Duomo,18,False,True,False,True,False,True,Dislivello in percentuale: 9.0; Lunghezza in cm.: 740.0,yes
499,ab_1483499,MUSEO NAZIONALE STORICO DEGLI ALPINI,Trento,TN,Italia,www.museonazionalealpini.it,46.079942,11.131239,0.0,Musei,2016-11-07,Doss Trento,,False,False,False,False,False,True,Dislivello in percentuale: 10.0; Lunghezza in cm.: 3000.0,limited
500,ab_507500,N.A.A.A. (NATWORK AIUTO ASSISTENZA ACCOGLIENZA),Trento,TN,Italia,www.naaa.it,46.058677,11.121518,200.0,Associazioni,2010-07-27,Via Bronzetti,"""",False,True,False,True,False,True,Dislivello in percentuale: 7.0; Lunghezza in cm.: 470.0,yes
501,ab_556501,NATURERBE E SANITARI,Trento,TN,Italia,,46.064979,11.1240549,200.0,Erboristerie,2013-01-09,Piazza Fiera,7,False,True,False,False,False,True,Dislivello in percentuale: 13.0; Lunghezza in cm.: 150.0,yes
502,ab_658502,NIKY'S,Trento,TN,Italia,www.nikys.it,46.0528103,11.1207524,200.0,Ristoranti,2010-07-01,Via San Pio X,29,False,True,False,True,False,True,Dislivello in percentuale: 34.7; Lunghezza in cm.: 38.0,yes
503,ab_69503,NON SOLO PIZZA,Trento,TN,Italia,,46.07044,11.1246,172.0,Fast Food,2013-01-04,Via Suffragio,83,False,True,False,False,False,False, ,limited
504,ab_234504,NUOVA APULEIO,Trento,TN,Italia,,46.0718294,11.1152496,180.0,Gelaterie,2010-05-06,Via Marco Apuleio,58,False,False,True,False,True,False, ,yes
505,ab_735505,NUOVA ASIA,Trento,TN,Italia,,46.0692054,11.1185675,200.0,Ristoranti,2013-01-21,Via Prepositura,15,False,True,False,True,False,False, ,limited
506,ab_732506,NUOVA CASTELLI,Trento,TN,Italia,,46.076036,11.1239391,200.0,Ristoranti,2010-07-29,Piazza Di Centa,11,False,True,False,True,False,True,Dislivello in percentuale: 22.0; Lunghezza in cm.: 100.0,yes
507,ab_788507,NUOVO BAR CHISTÉ,Trento,TN,Italia,,46.0922414,11.1159069,200.0,Bar,2010-07-14,Via Del Brennero,6,False,True,False,False,True,False, ,yes
508,ab_155508,NUOVO BAR PARADISO,Trento,TN,Italia,,46.068794,11.118577,225.0,Bar,2013-01-21,Via Prepositura,72,False,True,False,True,False,True,Dislivello in percentuale: 15.3; Lunghezza in cm.: 76.0,yes
509,ab_521509,OASI DELLA SPERANZA ONLUS - CENTRO SOLIDARIETA' PER FAMIGLIE TOSSICODIPENDENTI,Trento,TN,Italia,www.oasidellasperanza.com,46.0579773,11.1203449,200.0,Associazioni,2010-07-16,Via Veneto,24,False,True,False,False,False,False, ,limited
510,ab_420510,OBI,Trento,TN,Italia,www.obi-italia.it,46.0923121,11.1153171,200.0,Attivita commerciali,2010-08-23,Via Del Brennero,230,False,False,False,False,False,False, ,no
511,ab_59511,OLD BAR FOOD,Trento,TN,Italia,www.oldbar.it,46.06761,11.12442,214.0,Bar,2013-01-14,Via Roggia Grande,8,False,True,False,False,False,False, ,limited
512,ab_154512,OPERA UNIVERSITARIA - SERVIZIO DISABILITA',Trento,TN,Italia,www.operauni.tn.it,46.06899,11.11824,222.0,Scuole e universita,2013-01-21,Via Prepositura,48,False,True,False,True,False,False, ,limited
513,ab_526513,OPERA UNIVERSITARIA,Trento,TN,Italia,www.operauni.tn.it,46.0673551,11.1173177,200.0,Uffici Pubblici,2010-08-03,Via Zanella,1/A,False,True,False,True,False,False, ,limited
514,ab_584514,OPTISSIMO,Trento,TN,Italia,www.optissimo.it,46.0682586,11.1226458,200.0,Ottica,2013-01-11,Via Oriola,4,False,False,False,False,True,False, ,limited
515,ab_111515,ORGANIZZAZIONE CENTRALE PER LO SVILUPPO LOCALE (OCSE) - EX CONVENTO AGOSTINIANI,Trento,TN,Italia,www.trento.oecd.org,46.0697855,11.1255673,310.0,Uffici Pubblici,2016-05-03,Via San Marco,1,False,True,False,False,False,False, ,limited
