,Unnamed: 0,has_latitude,has_longitude,information,opening_hours,facility_type,smoking,architecturalBarriers,name,sport,has_capacity,menu,hiking,has_location,has_contactPoint
0,0,45.89232635498047,11.03329849243164,no information specified,,parking,,ab_49902,,,,"{'cuisine': None, 'isVegetarian': None, 'isVegan': None, 'isGlutenFree': None}",,269440263,cp_7449478496
1,1,45.84537506103516,11.013041496276855,no information specified,,attraction,,ab_91967,'Ruina Dantesca',,,"{'cuisine': None, 'isVegetarian': None, 'isVegan': None, 'isGlutenFree': None}",,270076323,cp_4317069097
2,2,45.89741897583008,11.045305252075195,no information specified,,parking,,ab_14015,,,,"{'cuisine': None, 'isVegetarian': None, 'isVegan': None, 'isGlutenFree': None}",,270097398,cp_1533778709
3,3,45.873985290527344,11.038881301879885,no information specified,,attraction,,ab_4682,'Campana dei Caduti',,,"{'cuisine': None, 'isVegetarian': None, 'isVegan': None, 'isGlutenFree': None}",,270099585,cp_9250708891
4,4,45.913536071777344,11.039809226989746,no information specified,,parking,,ab_43952,,,,"{'cuisine': None, 'isVegetarian': None, 'isVegan': None, 'isGlutenFree': None}",,303383004,cp_9782506275
5,5,45.88018035888672,11.019862174987791,no information specified,,picnic_site,,ab_91283,,,,"{'cuisine': None, 'isVegetarian': None, 'isVegan': None, 'isGlutenFree': None}",,305051248,cp_2312420089
6,6,45.877471923828125,11.018155097961426,no information specified,,picnic_site,,ab_52206,,,,"{'cuisine': None, 'isVegetarian': None, 'isVegan': None, 'isGlutenFree': None}",,306243653,cp_7375112536
7,7,45.86643600463867,11.00608253479004,no information specified,,picnic_site,,ab_15309,,,,"{'cuisine': None, 'isVegetarian': None, 'isVegan': None, 'isGlutenFree': None}",,307140760,cp_6608360736
8,8,45.88118743896485,11.070011138916016,no information specified,,parking,,ab_35737,'Parcheggio campo sportivo',,,"{'cuisine': None, 'isVegetarian': None, 'isVegan': None, 'isGlutenFree': None}",,369442791,cp_4809294369
9,9,45.88426971435547,11.072999000549316,no information specified,,parking,,ab_92742,,,,"{'cuisine': None, 'isVegetarian': None, 'isVegan': None, 'isGlutenFree': None}",,369443036,cp_7507806003
10,10,45.89007186889648,11.043947219848633,no information specified,,cafe,,ab_29234,'Caffè Bontadi',,,"{'cuisine': None, 'isVegetarian': None, 'isVegan': None, 'isGlutenFree': None}",,417409264,cp_2432110735
11,11,45.87514114379883,11.033567428588867,no information specified,,restaurant,,ab_52229,'Pizzeria Botti',,,"{'cuisine': 'pizza', 'isVegetarian': None, 'isVegan': None, 'isGlutenFree': None}",,417856704,cp_9137659970
12,12,45.90397644042969,11.078351020812988,no information specified,,viewpoint,,ab_75438,,,,"{'cuisine': None, 'isVegetarian': None, 'isVegan': None, 'isGlutenFree': None}",,419251171,cp_3245391866
13,13,45.90674209594727,11.105379104614258,guidepost,,information,,ab_41923,'MTB',,,"{'cuisine': None, 'isVegetarian': None, 'isVegan': None, 'isGlutenFree': None}",,421806674,cp_9370792544
14,14,45.874847412109375,11.033246994018556,no information specified,,restaurant,,ab_43684,'Pizzeria Okay',,,"{'cuisine': None, 'isVegetarian': None, 'isVegan': None, 'isGlutenFree': None}",,445562136,cp_5550299132
15,15,45.89010620117188,11.109387397766112,no information specified,,viewpoint,,ab_28921,,,,"{'cuisine': None, 'isVegetarian': None, 'isVegan': None, 'isGlutenFree': None}",,454567272,cp_7761756948
16,16,45.84833526611328,11.00319480895996,no information specified,,picnic_site,,ab_62407,,,,"{'cuisine': None, 'isVegetarian': None, 'isVegan': None, 'isGlutenFree': None}",,476777392,cp_2627135016
17,17,45.88969421386719,11.01616668701172,no information specified,,picnic_table,,ab_15789,,,,"{'cuisine': None, 'isVegetarian': None, 'isVegan': None, 'isGlutenFree': None}",,516509675,cp_3752667134
18,18,45.88903045654297,11.016215324401855,bicyclemap,,information,,ab_6231,"""Pista Ciclabile Valle dell'Adige""",,,"{'cuisine': None, 'isVegetarian': None, 'isVegan': None, 'isGlutenFree': None}",,516509678,cp_2746775542
19,19,45.90138244628906,11.02995491027832,no information specified,,picnic_site,,ab_1055,,,,"{'cuisine': None, 'isVegetarian': None, 'isVegan': None, 'isGlutenFree': None}",,516509712,cp_2530769673
20,20,45.89918899536133,11.027949333190918,no information specified,,picnic_site,,ab_99579,,,,"{'cuisine': None, 'isVegetarian': None, 'isVegan': None, 'isGlutenFree': None}",,516509715,cp_1649210240
21,21,45.898956298828125,11.027665138244627,no information specified,,picnic_site,,ab_34147,,,,"{'cuisine': None, 'isVegetarian': None, 'isVegan': None, 'isGlutenFree': None}",,516509717,cp_9388590838
22,22,45.8624267578125,10.99949073791504,bicyclemap,,information,,ab_48659,"""Pista Ciclabile Valle dell'Adige""",,,"{'cuisine': None, 'isVegetarian': None, 'isVegan': None, 'isGlutenFree': None}",,516509719,cp_6011427191
23,23,45.83891296386719,11.001465797424316,bicyclemap,,information,,ab_34235,"""Pista Ciclabile Valle dell'Adige""",,,"{'cuisine': None, 'isVegetarian': None, 'isVegan': None, 'isGlutenFree': None}",,516520290,cp_9071410783
24,24,45.91416931152344,11.040568351745604,map,,information,,ab_61500,"""Pista Ciclabile Valle dell'Adige""",,,"{'cuisine': None, 'isVegetarian': None, 'isVegan': None, 'isGlutenFree': None}",,524599074,cp_7349895879
25,25,45.85211944580078,11.010229110717772,no information specified,,playground,,ab_81201,,,,"{'cuisine': None, 'isVegetarian': None, 'isVegan': None, 'isGlutenFree': None}",,614868084,cp_7009318086
26,26,45.85438919067383,11.012250900268556,map,,information,,ab_77034,'Biotopo Lavini di Marco',,,"{'cuisine': None, 'isVegetarian': None, 'isVegan': None, 'isGlutenFree': None}",yes,614868158,cp_9811732007
27,27,45.85491180419922,11.014522552490234,no information specified,,viewpoint,,ab_98153,'Torretta di avvistamento',,,"{'cuisine': None, 'isVegetarian': None, 'isVegan': None, 'isGlutenFree': None}",,614868257,cp_3505849410
28,28,45.856910705566406,11.019243240356444,board,,information,,ab_6259,'Biotopo Lavini di Marco',,,"{'cuisine': None, 'isVegetarian': None, 'isVegan': None, 'isGlutenFree': None}",yes,614868311,cp_1462412816
29,29,45.8524169921875,11.010878562927246,no information specified,,parking,,ab_6083,,,,"{'cuisine': None, 'isVegetarian': None, 'isVegan': None, 'isGlutenFree': None}",,614926907,cp_1669982670
30,30,45.85580825805664,11.018006324768066,no information specified,,viewpoint,,ab_10178,'Torretta di avvistamento',,,"{'cuisine': None, 'isVegetarian': None, 'isVegan': None, 'isGlutenFree': None}",,618787853,cp_2306575547
31,31,45.86246490478516,11.033446311950684,map,,information,,ab_29282,,,,"{'cuisine': None, 'isVegetarian': None, 'isVegan': None, 'isGlutenFree': None}",yes,618788142,cp_8576854649
32,32,45.89097595214844,11.034255027770996,no information specified,,taxi,,ab_26172,,,,"{'cuisine': None, 'isVegetarian': None, 'isVegan': None, 'isGlutenFree': None}",,648183974,cp_3692609267
33,33,45.88184356689453,11.024230003356934,no information specified,,picnic_site,,ab_90439,,,,"{'cuisine': None, 'isVegetarian': None, 'isVegan': None, 'isGlutenFree': None}",,664123464,cp_6125874122
34,34,45.88199234008789,11.024859428405762,no information specified,,picnic_site,,ab_28211,,,,"{'cuisine': None, 'isVegetarian': None, 'isVegan': None, 'isGlutenFree': None}",,664123468,cp_2373740612
35,35,45.84357833862305,11.008539199829102,no information specified,,cafe,,ab_88943,'Mery',,,"{'cuisine': None, 'isVegetarian': None, 'isVegan': None, 'isGlutenFree': None}",,692740839,cp_6008054187
36,36,45.902130126953125,11.066655158996582,no information specified,,information,,ab_70611,,,,"{'cuisine': None, 'isVegetarian': None, 'isVegan': None, 'isGlutenFree': None}",,715298544,cp_7978493269
37,37,45.9041748046875,11.043258666992188,no information specified,,restaurant,,ab_14241,'Pizzeria Brione',,,"{'cuisine': 'pizza', 'isVegetarian': None, 'isVegan': None, 'isGlutenFree': None}",,777284830,cp_1241779468
38,38,45.89273452758789,11.04003620147705,no information specified,,restaurant,,ab_51151,'Pizzeria Napoli',,,"{'cuisine': 'pizza', 'isVegetarian': None, 'isVegan': None, 'isGlutenFree': None}",,780142013,cp_7183842659
39,39,45.88872528076172,11.043112754821776,no information specified,"Tu-Su 12:00-14:30,19:00-22:30",restaurant,,ab_14859,'Sushi alla Roza',,,"{'cuisine': 'japanese', 'isVegetarian': None, 'isVegan': None, 'isGlutenFree': None}",,802269764,cp_7930162405
40,40,45.888370513916016,11.040579795837402,no information specified,,cafe,,ab_85691,"""Harry'S Bar""",,,"{'cuisine': None, 'isVegetarian': None, 'isVegan': None, 'isGlutenFree': None}",,806751374,cp_6669234156
41,41,45.88531875610352,11.03002643585205,no information specified,,restaurant,,ab_92532,'Pizzeria Fucine',,,"{'cuisine': 'pizza', 'isVegetarian': None, 'isVegan': None, 'isGlutenFree': None}",,883455523,cp_5775573099
42,42,45.86443710327149,11.028525352478027,no information specified,"Mo-We 11:45-14:30,19:00-23:00; Th,Fr 11:45-14:30,19:00-23:30; Sa 18:00-24:00",restaurant,False,ab_61336,'La Brace',,,"{'cuisine': 'italian;pizza', 'isVegetarian': None, 'isVegan': None, 'isGlutenFree': None}",,903941484,cp_5268930703
43,43,45.87255859375,11.024307250976562,no information specified,,restaurant,,ab_69738,'Ristorante alla Staffa',,,"{'cuisine': None, 'isVegetarian': None, 'isVegan': None, 'isGlutenFree': None}",,915652265,cp_1711994664
44,44,45.84086990356445,11.045178413391112,no information specified,,viewpoint,,ab_98729,,,,"{'cuisine': None, 'isVegetarian': None, 'isVegan': None, 'isGlutenFree': None}",,989258588,cp_2988226630
45,45,45.85215759277344,11.033161163330078,map,,information,,ab_65541,,,,"{'cuisine': None, 'isVegetarian': None, 'isVegan': None, 'isGlutenFree': None}",yes,1126466839,cp_8024492722
46,46,45.85567855834961,11.026084899902344,guidepost,,information,,ab_56834,,,,"{'cuisine': None, 'isVegetarian': None, 'isVegan': None, 'isGlutenFree': None}",yes,1126466857,cp_1159291610
47,47,45.86088943481445,11.014381408691406,map,,information,,ab_25063,'Biotopo Lavini di Marco',,,"{'cuisine': None, 'isVegetarian': None, 'isVegan': None, 'isGlutenFree': None}",yes,1126515681,cp_2087804724
48,48,45.84551239013672,11.037425994873049,guidepost,,information,,ab_63410,,,,"{'cuisine': None, 'isVegetarian': None, 'isVegan': None, 'isGlutenFree': None}",yes,1139425028,cp_1599711673
49,49,45.84576797485352,11.036543846130373,Orme di dinosauri,,attraction,,ab_44883,'sito paleontologico Lavini di Marco',,,"{'cuisine': None, 'isVegetarian': None, 'isVegan': None, 'isGlutenFree': None}",,1139425226,cp_1077614169
50,50,45.9085578918457,11.04050636291504,no information specified,,hotel,,ab_78884,"""Sant'Ilario""",,,"{'cuisine': None, 'isVegetarian': None, 'isVegan': None, 'isGlutenFree': None}",,1154395699,cp_4741250559
51,51,45.9084358215332,11.04045867919922,no information specified,,restaurant,,ab_83148,'Ristorante S.Ilario Pizzeria',,,"{'cuisine': 'pizza', 'isVegetarian': None, 'isVegan': None, 'isGlutenFree': None}",,1154395707,cp_6999206497
52,52,45.894527435302734,11.04323387145996,no information specified,,picnic_site,,ab_12045,,,,"{'cuisine': None, 'isVegetarian': None, 'isVegan': None, 'isGlutenFree': None}",,1172286405,cp_9001144921
53,53,45.84428024291992,11.049418449401855,no information specified,,viewpoint,,ab_59579,'Vista sulla vallagarina da Malga Tof',,,"{'cuisine': None, 'isVegetarian': None, 'isVegan': None, 'isGlutenFree': None}",,1226652361,cp_2935994736
54,54,45.90739440917969,11.059138298034668,guidepost,,information,,ab_10380,'sentiero Volano',,,"{'cuisine': None, 'isVegetarian': None, 'isVegan': None, 'isGlutenFree': None}",,1273084924,cp_8292584408
55,55,45.87721252441406,11.033884048461914,no information specified,,playground,,ab_13666,,,,"{'cuisine': None, 'isVegetarian': None, 'isVegan': None, 'isGlutenFree': None}",,1300585590,cp_4236732378
56,56,45.857421875,11.001477241516112,no information specified,,restaurant,,ab_26460,'Ristorante lounge bar Indovino',,,"{'cuisine': None, 'isVegetarian': None, 'isVegan': None, 'isGlutenFree': None}",,1350658043,cp_2441010018
57,57,45.88980865478516,11.039705276489258,no information specified,"Mo-Tu Off; We-Sa 11:30-14:30, 17:30-00:00; Su Off",restaurant,,ab_55628,'al Silenzio',,,"{'cuisine': 'italian', 'isVegetarian': None, 'isVegan': None, 'isGlutenFree': None}",,1366734642,cp_2967528606
58,58,45.88731002807617,11.062677383422852,no information specified,,parking,,ab_69011,,,8,"{'cuisine': None, 'isVegetarian': None, 'isVegan': None, 'isGlutenFree': None}",,1374813267,cp_8786153991
59,59,45.89644241333008,11.040804862976074,no information specified,,restaurant,,ab_59047,'Trattoria da Pierino',,,"{'cuisine': 'italian', 'isVegetarian': None, 'isVegan': None, 'isGlutenFree': None}",,1402541403,cp_2066273842
60,60,45.8961296081543,11.11950969696045,guidepost,,information,,ab_43509,,,,"{'cuisine': None, 'isVegetarian': None, 'isVegan': None, 'isGlutenFree': None}",yes,1442631799,cp_4460074283
61,61,45.8878288269043,11.068081855773926,no information specified,,viewpoint,,ab_49775,'Merespiz',,,"{'cuisine': None, 'isVegetarian': None, 'isVegan': None, 'isGlutenFree': None}",,1479411597,cp_7649137861
62,62,45.80276870727539,11.057520866394045,no information specified,,viewpoint,,ab_31314,,,,"{'cuisine': None, 'isVegetarian': None, 'isVegan': None, 'isGlutenFree': None}",,1508795331,cp_6358085729
63,63,45.84274291992188,11.007575035095217,no information specified,,restaurant,,ab_22762,'La Pizia',,,"{'cuisine': None, 'isVegetarian': None, 'isVegan': None, 'isGlutenFree': None}",,1838686233,cp_9636199091
64,64,45.88547134399414,11.04470157623291,no information specified,,pub,,ab_84734,'Circolo Operaio SantaMaria',,,"{'cuisine': None, 'isVegetarian': None, 'isVegan': None, 'isGlutenFree': None}",,1985829027,cp_6368149329
65,65,45.88695907592773,11.045169830322266,no information specified,Tu-Su 10:00-18:00,museum,,ab_65657,"""Casa d'Arte Futurista Depero""",,,"{'cuisine': None, 'isVegetarian': None, 'isVegan': None, 'isGlutenFree': None}",,1992954489,cp_7546715154
66,66,45.87535858154297,11.033438682556152,no information specified,,pub,,ab_55829,'Druido',,,"{'cuisine': None, 'isVegetarian': None, 'isVegan': None, 'isGlutenFree': None}",,2150998976,cp_4623262285
67,67,45.8900032043457,11.029582023620604,no information specified,,hangar,,ab_17875,'PlasticRock',,,"{'cuisine': None, 'isVegetarian': None, 'isVegan': None, 'isGlutenFree': None}",,2154616596,cp_5995431037
68,68,45.88917922973633,11.044614791870115,no information specified,,restaurant,,ab_45250,'Al trivio',,,"{'cuisine': None, 'isVegetarian': None, 'isVegan': None, 'isGlutenFree': None}",,2159310289,cp_1784236498
69,69,45.889495849609375,11.044875144958496,no information specified,,pub,,ab_71717,'Locos',,,"{'cuisine': None, 'isVegetarian': None, 'isVegan': None, 'isGlutenFree': None}",,2159317571,cp_2171232718
70,70,45.88963317871094,11.043471336364746,no information specified,,pub,,ab_70066,'Perbacco',,,"{'cuisine': None, 'isVegetarian': None, 'isVegan': None, 'isGlutenFree': None}",,2159318291,cp_7413538372
71,71,45.89158248901367,11.043752670288086,no information specified,,restaurant,,ab_25110,'Osteria del Pettirosso',,,"{'cuisine': None, 'isVegetarian': None, 'isVegan': None, 'isGlutenFree': None}",,2159362024,cp_3834948872
72,72,45.88816833496094,11.052062034606934,no information specified,,wayside_shrine,,ab_76686,'Santa Maria Assunta',,,"{'cuisine': None, 'isVegetarian': None, 'isVegan': None, 'isGlutenFree': None}",,2164525589,cp_1721925294
73,73,45.89948654174805,11.041558265686035,no information specified,,cafe,,ab_18459,,,,"{'cuisine': None, 'isVegetarian': None, 'isVegan': None, 'isGlutenFree': None}",,2171057706,cp_8240256523
74,74,45.90085983276367,11.042067527770996,no information specified,,cafe,,ab_68916,'Bar City',,,"{'cuisine': None, 'isVegetarian': None, 'isVegan': None, 'isGlutenFree': None}",,2173939085,cp_3584730045
75,75,45.88776779174805,11.100862503051758,no information specified,,hut,,ab_97511,,,,"{'cuisine': None, 'isVegetarian': None, 'isVegan': None, 'isGlutenFree': None}",,2191481474,cp_3223479001
76,76,45.88988876342773,11.04219913482666,no information specified,,hostel,,ab_43117,'Ostello di Rovereto',,,"{'cuisine': None, 'isVegetarian': None, 'isVegan': None, 'isGlutenFree': None}",,2482401350,cp_9888368338
77,77,45.89108657836914,11.04336166381836,map,,information,,ab_14747,,,,"{'cuisine': None, 'isVegetarian': None, 'isVegan': None, 'isGlutenFree': None}",,2482496415,cp_7330082159
78,78,45.89018249511719,11.041335105895996,no information specified,,cafe,,ab_42795,'Bottega del Caffé',,,"{'cuisine': None, 'isVegetarian': None, 'isVegan': None, 'isGlutenFree': None}",,2484653256,cp_7948820915
79,79,45.88995361328125,11.04220199584961,no information specified,,cafe,,ab_85993,'Bar Bianco',,,"{'cuisine': None, 'isVegetarian': None, 'isVegan': None, 'isGlutenFree': None}",,2484736017,cp_5727561801
80,80,45.88996887207031,11.04133415222168,no information specified,,cafe,,ab_86186,'Caffè Excelsior',,,"{'cuisine': None, 'isVegetarian': None, 'isVegan': None, 'isGlutenFree': None}",,2484736018,cp_9711351181
81,81,45.88912963867188,11.042221069335938,no information specified,,artwork,,ab_84496,'Cavallo',,,"{'cuisine': None, 'isVegetarian': None, 'isVegan': None, 'isGlutenFree': None}",,2484736019,cp_9881857687
82,82,45.88837432861328,11.041534423828123,no information specified,,cafe,,ab_71908,'Tiffany',,,"{'cuisine': None, 'isVegetarian': None, 'isVegan': None, 'isGlutenFree': None}",,2484736030,cp_6909373407
83,83,45.888519287109375,11.044824600219728,no information specified,,restaurant,,ab_55768,'Vecchia Trattoria Birraria Scala della Torre',,,"{'cuisine': None, 'isVegetarian': None, 'isVegan': None, 'isGlutenFree': None}",,2484736031,cp_8614265908
84,84,45.89102554321289,11.041471481323242,no information specified,,taxi,,ab_93807,,,,"{'cuisine': None, 'isVegetarian': None, 'isVegan': None, 'isGlutenFree': None}",,2484872540,cp_7043580086
85,85,45.89107894897461,11.04373836517334,guidepost,,information,,ab_77176,,,,"{'cuisine': None, 'isVegetarian': None, 'isVegan': None, 'isGlutenFree': None}",,2485113274,cp_2917317873
86,86,45.8858528137207,11.045780181884766,guidepost,,information,,ab_96462,,,,"{'cuisine': None, 'isVegetarian': None, 'isVegan': None, 'isGlutenFree': None}",yes,2485130499,cp_2412267969
87,87,45.88587188720703,11.045747756958008,board,,information,,ab_29537,,,,"{'cuisine': None, 'isVegetarian': None, 'isVegan': None, 'isGlutenFree': None}",,2485130500,cp_9793790721
88,88,45.889286041259766,11.04222297668457,guidepost,,information,,ab_22307,,,,"{'cuisine': None, 'isVegetarian': None, 'isVegan': None, 'isGlutenFree': None}",,2485140729,cp_2926754611
89,89,45.89076232910156,11.037881851196287,no information specified,,restaurant,,ab_16356,"""Ristorante Novecento dell'Hotel Rovereto""",,,"{'cuisine': 'regional;pizza', 'isVegetarian': 'yes', 'isVegan': 'yes', 'isGlutenFree': None}",,2486092346,cp_5124146218
90,90,45.90494918823242,11.040772438049316,no information specified,,social_centre,,ab_94539,"""C'entro anch'io""",,,"{'cuisine': None, 'isVegetarian': None, 'isVegan': None, 'isGlutenFree': None}",,2491278462,cp_9281843499
91,91,45.887794494628906,11.04454231262207,Vegan Restaurant - Ristorante Vegano,"Th-Sa 12:00-14:00,20:00-23:00",restaurant,,ab_47973,"""l'Orto di Pitagora""",,,"{'cuisine': None, 'isVegetarian': 'yes', 'isVegan': 'yes', 'isGlutenFree': None}",,2493523507,cp_5487930795
92,92,45.90833282470703,11.040472030639648,no information specified,,cafe,,ab_78148,,,,"{'cuisine': None, 'isVegetarian': None, 'isVegan': None, 'isGlutenFree': None}",,2509331932,cp_5621460321
93,93,45.89059448242188,11.032063484191896,no information specified,,cafe,,ab_76170,'Bar Piave',,,"{'cuisine': None, 'isVegetarian': None, 'isVegan': None, 'isGlutenFree': None}",,2509341606,cp_6153810445
94,94,45.90771484375,11.040985107421877,no information specified,,restaurant,,ab_71775,'Watami',,,"{'cuisine': 'chinese;japanese', 'isVegetarian': None, 'isVegan': None, 'isGlutenFree': None}",,2638148201,cp_4833103057
95,95,45.8890495300293,11.033533096313477,no information specified,,restaurant,,ab_67129,'Sushoku',,,"{'cuisine': 'japanese', 'isVegetarian': None, 'isVegan': None, 'isGlutenFree': None}",,2638148558,cp_4096548390
96,96,45.904052734375,11.03700828552246,no information specified,,caravan_site,,ab_38907,,,,"{'cuisine': None, 'isVegetarian': None, 'isVegan': None, 'isGlutenFree': None}",,2841347980,cp_2922801990
97,97,45.82794570922852,11.050745964050291,board,,information,,ab_23728,'15-18 Trincerone - Kopfstellung',,,"{'cuisine': None, 'isVegetarian': None, 'isVegan': None, 'isGlutenFree': None}",,2870563114,cp_3475828041
98,98,45.82769775390625,11.05189609527588,board,,information,,ab_95414,'15-18 Trincerone-Kopfstellung',,,"{'cuisine': None, 'isVegetarian': None, 'isVegan': None, 'isGlutenFree': None}",,2870563115,cp_6160260047
99,99,45.81632995605469,11.053653717041016,board,,information,,ab_30645,'15-18 Cimiteri di guerra',,,"{'cuisine': None, 'isVegetarian': None, 'isVegan': None, 'isGlutenFree': None}",,2870575147,cp_4094600891
100,100,45.81509017944336,11.056804656982422,no information specified,,picnic_site,,ab_52483,,,,"{'cuisine': None, 'isVegetarian': None, 'isVegan': None, 'isGlutenFree': None}",,2872557496,cp_3578611749
101,101,45.84098434448242,11.046082496643066,no information specified,,picnic_site,,ab_29508,,,,"{'cuisine': None, 'isVegetarian': None, 'isVegan': None, 'isGlutenFree': None}",,2881112697,cp_3948766405
102,102,45.88800048828125,11.044631004333496,no information specified,,restaurant,,ab_65122,'Assaporando',,,"{'cuisine': 'mediterranean', 'isVegetarian': None, 'isVegan': None, 'isGlutenFree': None}",,2946662243,cp_1298053395
103,103,45.89183044433594,11.04212474822998,no information specified,,restaurant,,ab_89130,'Pizzeria Marco',,,"{'cuisine': 'pizza', 'isVegetarian': None, 'isVegan': None, 'isGlutenFree': None}",,3076630067,cp_7803656941
104,104,45.88882827758789,11.03594970703125,no information specified,"Mo-Th 07:30-19:00; Fr 07:30-12:00,14:30-19:00; Sa 08:00-12:00",cafe,,ab_32587,'StreetBikers',,,"{'cuisine': 'italian', 'isVegetarian': None, 'isVegan': None, 'isGlutenFree': None}",,3116375600,cp_7224763089
105,105,45.889923095703125,11.043506622314451,no information specified,,cafe,,ab_57165,'Bar Andreatta',,,"{'cuisine': None, 'isVegetarian': None, 'isVegan': 'yes', 'isGlutenFree': None}",,3230336766,cp_8928179442
106,106,45.88804626464844,11.040311813354492,no information specified,,food_court,,ab_98593,'Forchettiamo',,,"{'cuisine': None, 'isVegetarian': None, 'isVegan': None, 'isGlutenFree': None}",,3281937447,cp_2122121223
107,107,45.88631820678711,11.04631233215332,no information specified,,museum,,ab_94658,'Museo Storico Italiano della Guerra',,,"{'cuisine': None, 'isVegetarian': None, 'isVegan': None, 'isGlutenFree': None}",,3312642477,cp_9512863927
108,108,45.88928985595703,11.041951179504396,no information specified,,gallery,,ab_63756,'Tonolli',,,"{'cuisine': None, 'isVegetarian': None, 'isVegan': None, 'isGlutenFree': None}",,3334278990,cp_4985977204
109,109,45.8072395324707,11.058968544006348,no information specified,,picnic_table,,ab_69673,,,,"{'cuisine': None, 'isVegetarian': None, 'isVegan': None, 'isGlutenFree': None}",,3463722730,cp_3788011269
110,110,45.887813568115234,11.044767379760742,no information specified,,restaurant,False,ab_12967,"""Drago d'Oro""",,,"{'cuisine': 'chinese', 'isVegetarian': None, 'isVegan': None, 'isGlutenFree': None}",,3699585392,cp_9494233506
111,111,45.8955307006836,11.039850234985352,no information specified,,dance,,ab_7284,'Danza Mania',,,"{'cuisine': None, 'isVegetarian': None, 'isVegan': None, 'isGlutenFree': None}",,3813891780,cp_5688207013
112,112,45.89493560791016,11.038039207458496,no information specified,,cafe,,ab_73942,"""Ca dell'Ora""",,,"{'cuisine': None, 'isVegetarian': None, 'isVegan': None, 'isGlutenFree': None}",,3815830157,cp_6417234358
113,113,45.89554977416992,11.037134170532228,no information specified,,restaurant,,ab_4090,'Margherita',,,"{'cuisine': 'pizza', 'isVegetarian': None, 'isVegan': None, 'isGlutenFree': None}",,3815857590,cp_1982923051
114,114,45.90307235717773,11.042699813842772,no information specified,Th-Fr 15:00-20:30; Sa 12:00-18:00,sauna,,ab_90007,'Area 39',,,"{'cuisine': None, 'isVegetarian': None, 'isVegan': None, 'isGlutenFree': None}",,3867879077,cp_3262649305
115,115,45.896278381347656,11.037278175354004,no information specified,,cafe,,ab_48967,'Serendipity',,,"{'cuisine': None, 'isVegetarian': None, 'isVegan': None, 'isGlutenFree': None}",,4005533476,cp_1140443314
116,116,45.88691329956055,11.043563842773438,no information specified,,restaurant,,ab_35282,'Terrazza sul Leno',,,"{'cuisine': 'pizza', 'isVegetarian': None, 'isVegan': None, 'isGlutenFree': None}",,4013446318,cp_4267796659
117,117,45.85226440429688,11.033066749572754,board,,information,,ab_54666,'Orme dei dinosauri',,,"{'cuisine': None, 'isVegetarian': None, 'isVegan': None, 'isGlutenFree': None}",,4198336191,cp_8306765355
118,118,45.84255599975586,11.033524513244627,guidepost,,information,,ab_57120,,,,"{'cuisine': None, 'isVegetarian': None, 'isVegan': None, 'isGlutenFree': None}",yes,4198336192,cp_1265601119
119,119,45.84506607055664,11.031564712524414,board,,information,,ab_30324,,,,"{'cuisine': None, 'isVegetarian': None, 'isVegan': None, 'isGlutenFree': None}",,4198336193,cp_4027455040
120,120,45.84507369995117,11.031442642211914,guidepost,,information,,ab_40602,,,,"{'cuisine': None, 'isVegetarian': None, 'isVegan': None, 'isGlutenFree': None}",yes,4198336194,cp_3263338623
121,121,45.8476791381836,11.034431457519531,board,,information,,ab_24109,,,,"{'cuisine': None, 'isVegetarian': None, 'isVegan': None, 'isGlutenFree': None}",,4198336196,cp_6062333543
122,122,45.8497314453125,11.035041809082031,board,,information,,ab_50563,,,,"{'cuisine': None, 'isVegetarian': None, 'isVegan': None, 'isGlutenFree': None}",,4198336198,cp_1524647753
123,123,45.85065841674805,11.033910751342772,board,,information,,ab_29801,,,,"{'cuisine': None, 'isVegetarian': None, 'isVegan': None, 'isGlutenFree': None}",,4198336201,cp_9374993109
124,124,45.8507194519043,11.033164024353027,board,,information,,ab_26738,,,,"{'cuisine': None, 'isVegetarian': None, 'isVegan': None, 'isGlutenFree': None}",,4198336202,cp_5467175594
125,125,45.85161590576172,11.032987594604492,board,,information,,ab_93327,,,,"{'cuisine': None, 'isVegetarian': None, 'isVegan': None, 'isGlutenFree': None}",,4198336203,cp_1299371510
126,126,45.85204315185547,11.03319263458252,board,,information,,ab_31499,,,,"{'cuisine': None, 'isVegetarian': None, 'isVegan': None, 'isGlutenFree': None}",,4198336204,cp_3570883509
127,127,45.91127014160156,11.053194999694824,no information specified,,picnic_table,,ab_79885,,,,"{'cuisine': None, 'isVegetarian': None, 'isVegan': None, 'isGlutenFree': None}",,4605995908,cp_8328792841
128,128,45.80731201171875,11.058351516723633,no information specified,,picnic_table,,ab_66582,,,,"{'cuisine': None, 'isVegetarian': None, 'isVegan': None, 'isGlutenFree': None}",,4729737243,cp_2933327723
129,129,45.83642578125,11.050061225891112,board,,information,,ab_76664,,,,"{'cuisine': None, 'isVegetarian': None, 'isVegan': None, 'isGlutenFree': None}",,4784928624,cp_2988554554
130,130,45.89018630981445,11.040602684020996,no information specified,"Mo-Sa 12:00-14:00,18:30-23:00; Su 18:30-23:00",restaurant,,ab_69935,'Dogali Burgers',,,"{'cuisine': 'burger;fried_food;piadina', 'isVegetarian': 'yes', 'isVegan': 'yes', 'isGlutenFree': None}",,4874793589,cp_5738635818
131,131,45.900657653808594,11.041279792785645,no information specified,,fitness_centre,,ab_13779,"'Palestra ""Liberty Dance""'",,,"{'cuisine': None, 'isVegetarian': None, 'isVegan': None, 'isGlutenFree': None}",,4875536174,cp_1539001578
132,132,45.89483642578125,11.086979866027832,no information specified,,playground,,ab_74817,,,,"{'cuisine': None, 'isVegetarian': None, 'isVegan': None, 'isGlutenFree': None}",,4958773901,cp_5858526754
133,133,45.88793563842773,11.055824279785156,no information specified,,wayside_shrine,,ab_31758,'Sant Antonio',,,"{'cuisine': None, 'isVegetarian': None, 'isVegan': None, 'isGlutenFree': None}",,4995162064,cp_1689030378
134,134,45.887577056884766,11.045056343078612,no information specified,"Mo-Su 12:00-14:00, 19:00-22:00",restaurant,False,ab_7289,'Il Doge',,50/60,"{'cuisine': None, 'isVegetarian': None, 'isVegan': None, 'isGlutenFree': None}",,5069371904,cp_6935797522
135,135,45.84165573120117,11.048730850219728,no information specified,,picnic_table,,ab_90154,,,,"{'cuisine': None, 'isVegetarian': None, 'isVegan': None, 'isGlutenFree': None}",,5154263646,cp_4490939603
136,136,45.86713790893555,11.02069854736328,no information specified,,parking,,ab_79963,,,,"{'cuisine': None, 'isVegetarian': None, 'isVegan': None, 'isGlutenFree': None}",,5194568898,cp_4942947780
137,137,45.86706161499024,11.020427703857422,no information specified,,parking,,ab_74979,,,,"{'cuisine': None, 'isVegetarian': None, 'isVegan': None, 'isGlutenFree': None}",,5194568899,cp_5671462425
138,138,45.89473724365234,11.044673919677734,no information specified,,artwork,,ab_21546,,,,"{'cuisine': None, 'isVegetarian': None, 'isVegan': None, 'isGlutenFree': None}",,5365385300,cp_1551960931
139,139,45.89480209350586,11.044933319091797,no information specified,,artwork,,ab_33643,,,,"{'cuisine': None, 'isVegetarian': None, 'isVegan': None, 'isGlutenFree': None}",,5365385301,cp_8453760031
140,140,45.89469528198242,11.044866561889648,no information specified,,artwork,,ab_71452,,,,"{'cuisine': None, 'isVegetarian': None, 'isVegan': None, 'isGlutenFree': None}",,5365385302,cp_7730777922
141,141,45.89488983154297,11.044845581054688,no information specified,,artwork,,ab_84350,,,,"{'cuisine': None, 'isVegetarian': None, 'isVegan': None, 'isGlutenFree': None}",,5365385303,cp_4021506556
142,142,45.89457702636719,11.04450798034668,no information specified,,artwork,,ab_60870,,,,"{'cuisine': None, 'isVegetarian': None, 'isVegan': None, 'isGlutenFree': None}",,5365385304,cp_6068561608
143,143,45.89867401123047,11.042306900024414,no information specified,,artwork,,ab_27629,,,,"{'cuisine': None, 'isVegetarian': None, 'isVegan': None, 'isGlutenFree': None}",,5368717191,cp_7691896388
144,144,45.89360427856445,11.035881042480469,no information specified,,artwork,,ab_6261,'Energy',,,"{'cuisine': None, 'isVegetarian': None, 'isVegan': None, 'isGlutenFree': None}",,5374581156,cp_9858409276
145,145,45.89496612548828,11.038947105407717,no information specified,,artwork,,ab_84498,'Scultura Cristiana',,,"{'cuisine': None, 'isVegetarian': None, 'isVegan': None, 'isGlutenFree': None}",,5375920263,cp_7180970998
146,146,45.89252853393555,11.03658676147461,no information specified,Mo-Fr 11:30-14:30,food_court,False,ab_46720,'Gilda',,,"{'cuisine': None, 'isVegetarian': None, 'isVegan': None, 'isGlutenFree': None}",,5400550648,cp_8988486979
147,147,45.90158081054688,11.046422004699709,no information specified,,artwork,,ab_23919,'Capitello della Madonna',,,"{'cuisine': None, 'isVegetarian': None, 'isVegan': None, 'isGlutenFree': None}",,5493331092,cp_9635581247
148,148,45.900390625,11.045092582702637,no information specified,,parking,,ab_83809,,,,"{'cuisine': None, 'isVegetarian': None, 'isVegan': None, 'isGlutenFree': None}",,5572787153,cp_1365758883
149,149,45.90103912353516,11.045011520385742,no information specified,,playground,,ab_87753,,,,"{'cuisine': None, 'isVegetarian': None, 'isVegan': None, 'isGlutenFree': None}",,5572787154,cp_3523141805
150,150,45.89531707763672,11.026555061340332,no information specified,,parking,,ab_55171,,,,"{'cuisine': None, 'isVegetarian': None, 'isVegan': None, 'isGlutenFree': None}",,5804936996,cp_4691746744
151,151,45.88515472412109,11.046161651611328,no information specified,,guest_house,,ab_41864,,,,"{'cuisine': None, 'isVegetarian': None, 'isVegan': None, 'isGlutenFree': None}",,5805928657,cp_3286720719
152,152,45.86716079711914,11.012873649597168,no information specified,"Tu-Su 12:00-15:00, 19:00-23:00",restaurant,,ab_44174,'SúYoshì',,,"{'cuisine': 'sushi', 'isVegetarian': None, 'isVegan': None, 'isGlutenFree': None}",,5852942369,cp_4195718732
153,153,45.867652893066406,11.013091087341309,no information specified,,adult_gaming_centre,,ab_28150,'LasVegas',,,"{'cuisine': None, 'isVegetarian': None, 'isVegan': None, 'isGlutenFree': None}",,5856280836,cp_2408179450
154,154,45.86751174926758,11.012245178222656,no information specified,,fitness_centre,,ab_20051,'Mad Tortuga Crossfit Rovereto',,,"{'cuisine': None, 'isVegetarian': None, 'isVegan': None, 'isGlutenFree': None}",,5864127323,cp_3811253615
155,155,45.8842887878418,11.033403396606444,no information specified,,fitness_centre,,ab_44403,'Perfect Gym',,,"{'cuisine': None, 'isVegetarian': None, 'isVegan': None, 'isGlutenFree': None}",,5864127324,cp_3614702154
156,156,45.9003791809082,11.03428554534912,no information specified,,university,,ab_45226,'LABA Trentino',,,"{'cuisine': None, 'isVegetarian': None, 'isVegan': None, 'isGlutenFree': None}",,5887231094,cp_9882283418
157,157,45.87820053100586,11.033763885498049,no information specified,,cafe,,ab_20548,'Buonissimo',,,"{'cuisine': None, 'isVegetarian': None, 'isVegan': None, 'isGlutenFree': None}",,6091712990,cp_2660428473
158,158,45.891090393066406,11.040419578552246,no information specified,,ice_rink,,ab_16642,'Pista Ghiaccio - Spettacoli Viaggianti',,,"{'cuisine': None, 'isVegetarian': None, 'isVegan': None, 'isGlutenFree': None}",,6109085492,cp_4834980134
159,159,45.87607192993164,11.0989990234375,no information specified,,viewpoint,,ab_11337,'Dos de Sguiz',,,"{'cuisine': None, 'isVegetarian': None, 'isVegan': None, 'isGlutenFree': None}",,6285620604,cp_6231700466
160,160,45.87969970703125,11.019882202148438,no information specified,,picnic_table,,ab_26732,,,,"{'cuisine': None, 'isVegetarian': None, 'isVegan': None, 'isGlutenFree': None}",,6347428293,cp_1576185002
161,161,45.87739944458008,11.01810359954834,no information specified,,picnic_table,,ab_13054,,,,"{'cuisine': None, 'isVegetarian': None, 'isVegan': None, 'isGlutenFree': None}",,6347428294,cp_8339314418
162,162,45.87752532958984,11.01820182800293,no information specified,,picnic_table,,ab_12384,,,,"{'cuisine': None, 'isVegetarian': None, 'isVegan': None, 'isGlutenFree': None}",,6347428295,cp_1658046614
163,163,45.88151168823242,11.023289680480955,no information specified,,picnic_table,,ab_50097,,,,"{'cuisine': None, 'isVegetarian': None, 'isVegan': None, 'isGlutenFree': None}",,6499447401,cp_1010937286
164,164,45.87960433959961,11.019805908203123,no information specified,,picnic_table,,ab_97133,,,,"{'cuisine': None, 'isVegetarian': None, 'isVegan': None, 'isGlutenFree': None}",,6499447402,cp_5355112124
165,165,45.90039825439453,11.04024887084961,no information specified,,public,,ab_80143,'Centro Sociale',,,"{'cuisine': None, 'isVegetarian': None, 'isVegan': None, 'isGlutenFree': None}",,6501697485,cp_6229599840
166,166,45.89212417602539,11.041484832763672,no information specified,Mo-Su 11:00-23:00,restaurant,,ab_78898,'Bella Rovereto',,,"{'cuisine': 'kebab;pizza', 'isVegetarian': None, 'isVegan': None, 'isGlutenFree': None}",,6536659765,cp_9861683506
167,167,45.893531799316406,11.027170181274414,no information specified,,fitness_station,,ab_8686,'Centro Ween Rovereto',,,"{'cuisine': None, 'isVegetarian': None, 'isVegan': None, 'isGlutenFree': None}",,6791933531,cp_8093332325
168,168,45.888668060302734,11.016222953796388,no information specified,,picnic_table,,ab_81655,,,,"{'cuisine': None, 'isVegetarian': None, 'isVegan': None, 'isGlutenFree': None}",,6792820034,cp_5912182760
169,169,45.88717269897461,11.030943870544434,no information specified,,fitness_centre,,ab_23000,'Dance Village',,,"{'cuisine': None, 'isVegetarian': None, 'isVegan': None, 'isGlutenFree': None}",,6867227781,cp_9395723218
170,170,45.88702392578125,11.03331184387207,no information specified,,adult_gaming_centre,,ab_9704,,,,"{'cuisine': None, 'isVegetarian': None, 'isVegan': None, 'isGlutenFree': None}",,6869007799,cp_8939450225
171,171,45.88362884521485,11.02064323425293,no information specified,,artwork,,ab_73294,,,,"{'cuisine': None, 'isVegetarian': None, 'isVegan': None, 'isGlutenFree': None}",,6910385503,cp_7077823165
172,172,45.88900375366211,11.033660888671877,no information specified,,parking,,ab_85941,,,,"{'cuisine': None, 'isVegetarian': None, 'isVegan': None, 'isGlutenFree': None}",,7146091389,cp_2126219537
173,173,45.85540771484375,11.048439025878906,no information specified,,picnic_table,,ab_20568,,,,"{'cuisine': None, 'isVegetarian': None, 'isVegan': None, 'isGlutenFree': None}",,7528823873,cp_7257673421
174,174,45.848419189453125,11.003241539001465,no information specified,,picnic_table,,ab_53140,,,,"{'cuisine': None, 'isVegetarian': None, 'isVegan': None, 'isGlutenFree': None}",,7780855766,cp_5320769440
175,175,45.84835433959961,11.003290176391602,no information specified,,picnic_table,,ab_85759,,,,"{'cuisine': None, 'isVegetarian': None, 'isVegan': None, 'isGlutenFree': None}",,7780855767,cp_3635905928
176,176,45.85359573364258,11.034873008728027,no information specified,,picnic_table,,ab_9952,,,,"{'cuisine': None, 'isVegetarian': None, 'isVegan': None, 'isGlutenFree': None}",,7894980155,cp_1133988334
177,177,45.853614807128906,11.034921646118164,no information specified,,picnic_table,,ab_71377,,,,"{'cuisine': None, 'isVegetarian': None, 'isVegan': None, 'isGlutenFree': None}",,7894980156,cp_1269338194
178,178,45.85322189331055,11.03496551513672,board,,information,,ab_64487,,,,"{'cuisine': None, 'isVegetarian': None, 'isVegan': None, 'isGlutenFree': None}",,7894980157,cp_7837111167
179,179,45.85333633422852,11.034781455993652,board,,information,,ab_12934,,,,"{'cuisine': None, 'isVegetarian': None, 'isVegan': None, 'isGlutenFree': None}",,7894980158,cp_5606201623
180,180,45.882850646972656,11.036678314208984,no information specified,"Mo,We-Su 10:30-14:00,17:30-22:00; PH,Tu 10:30-14:00,17:30-22:00",restaurant,,ab_64446,'Hong Kong',,,"{'cuisine': 'chinese', 'isVegetarian': None, 'isVegan': None, 'isGlutenFree': None}",,7928997808,cp_8776337918
181,181,45.90423583984375,11.052472114562988,board,,information,,ab_75642,,,,"{'cuisine': None, 'isVegetarian': None, 'isVegan': None, 'isGlutenFree': None}",,8005557817,cp_3381798191
182,182,45.902156829833984,11.05670166015625,board,,information,,ab_12801,,,,"{'cuisine': None, 'isVegetarian': None, 'isVegan': None, 'isGlutenFree': None}",,8086040476,cp_7702208452
183,183,45.90410614013672,11.052762031555176,board,,information,,ab_61500,,,,"{'cuisine': None, 'isVegetarian': None, 'isVegan': None, 'isGlutenFree': None}",,8086044929,cp_7226978957
184,184,45.88824844360352,11.042268753051758,no information specified,"Mo-Fr 11:30-14:30,18:30-22:00; Sa 18:30-22:00; Su off",restaurant,,ab_3361,'Putipù',,,"{'cuisine': 'pizza', 'isVegetarian': None, 'isVegan': None, 'isGlutenFree': None}",,8197332146,cp_9791264644
185,185,45.89600372314453,11.030356407165527,no information specified,,cafe,,ab_82485,,,,"{'cuisine': None, 'isVegetarian': None, 'isVegan': None, 'isGlutenFree': None}",,8198607089,cp_2098258467
186,186,45.89547348022461,11.087693214416504,no information specified,,picnic_table,,ab_91594,,,,"{'cuisine': None, 'isVegetarian': None, 'isVegan': None, 'isGlutenFree': None}",,8465511916,cp_7152765394
187,187,45.90973663330078,11.054281234741213,board,,information,,ab_10028,,,,"{'cuisine': None, 'isVegetarian': None, 'isVegan': None, 'isGlutenFree': None}",,8689591655,cp_8561870726
188,188,45.90797805786133,11.052316665649414,board,,information,,ab_67639,,,,"{'cuisine': None, 'isVegetarian': None, 'isVegan': None, 'isGlutenFree': None}",,8689591656,cp_4314302103
189,189,45.90397644042969,11.03860092163086,no information specified,,park,,ab_88490,'Busa dei Cavai',,,"{'cuisine': None, 'isVegetarian': None, 'isVegan': None, 'isGlutenFree': None}",,8806252786,cp_7123186112
190,190,45.904056549072266,11.038284301757812,no information specified,,theatre,,ab_67600,,,,"{'cuisine': None, 'isVegetarian': None, 'isVegan': None, 'isGlutenFree': None}",,8806260190,cp_5436532841
191,191,45.89414596557617,11.043793678283691,no information specified,,library,,ab_19960,'BUR - Biblioteca Universitaria Rovereto',,,"{'cuisine': None, 'isVegetarian': None, 'isVegan': None, 'isGlutenFree': None}",,8867627558,cp_3070593475
192,192,45.87702560424805,11.017799377441406,no information specified,,picnic_table,,ab_57304,,,,"{'cuisine': None, 'isVegetarian': None, 'isVegan': None, 'isGlutenFree': None}",,8948896194,cp_3740522471
193,193,45.877960205078125,11.086078643798828,no information specified,,guest_house,,ab_60965,'Agritur Masi Brenta',,,"{'cuisine': None, 'isVegetarian': None, 'isVegan': None, 'isGlutenFree': None}",,9172000532,cp_4480843130
194,194,45.88949203491211,11.04482364654541,no information specified,"Mo-Fr 07:30-16:00; Sa 09:00-12:00, 13:00-16:00, 18:00-22:00",restaurant,,ab_93815,'Amaranta Bio Bistrot',,,"{'cuisine': 'vegan', 'isVegetarian': None, 'isVegan': None, 'isGlutenFree': None}",,9178364617,cp_8625078622
195,195,45.88053998811196,11.022060015714745,no information specified,07:30-23:45,restaurant,,ab_80393,'Bici Grill Rovereto',,,"{'cuisine': None, 'isVegetarian': None, 'isVegan': None, 'isGlutenFree': None}",,557813326,cp_9513694447
196,196,45.89102998184555,11.038249996974258,no information specified,,college,,ab_70160,'Liceo Fabio Filzi',,,"{'cuisine': None, 'isVegetarian': None, 'isVegan': None, 'isGlutenFree': None}",,676890164,cp_5048199726
197,197,45.90573066917486,11.042396096085165,no information specified,24/7,park,,ab_44748,'Parco Amico ora Colorio',,,"{'cuisine': None, 'isVegetarian': None, 'isVegan': None, 'isGlutenFree': None}",,283549419,cp_6751951930
198,198,45.904430004723565,11.044220007510944,no information specified,,school,,ab_69343,"'Scuola Primaria ""M. K. Gandhi"" Rovereto'",,,"{'cuisine': None, 'isVegetarian': None, 'isVegan': None, 'isGlutenFree': None}",,533257964,cp_8271753654
199,199,45.893250012720586,11.041850024388111,no information specified,,school,,ab_62666,'Istituto Fontana',,,"{'cuisine': None, 'isVegetarian': None, 'isVegan': None, 'isGlutenFree': None}",,775868814,cp_3843964051
200,200,45.86951398485317,11.015513858306276,no information specified,,commercial,,ab_75710,'Millennium Center',,,"{'cuisine': None, 'isVegetarian': None, 'isVegan': None, 'isGlutenFree': None}",,994167094,cp_3383902958
201,201,45.86190999292859,11.039499990194798,no information specified,,public,False,ab_15498,'Baita degli Alpini Lizzanella',,,"{'cuisine': None, 'isVegetarian': None, 'isVegan': None, 'isGlutenFree': None}",,1093955488,cp_9624199363
202,202,45.89589001885423,11.043200013713545,no information specified,,school,,ab_80409,"'Liceo ""A. Rosmini"" - Rovereto'",,,"{'cuisine': None, 'isVegetarian': None, 'isVegan': None, 'isGlutenFree': None}",,1564305845,cp_4698360567
203,203,45.89686998906399,11.043330017031792,no information specified,,school,,ab_32845,'Collegio Arcivescovile Dame Inglesi Rovereto',,,"{'cuisine': None, 'isVegetarian': None, 'isVegan': None, 'isGlutenFree': None}",,1572407331,cp_4097636383
204,204,46.07182693481445,11.14046859741211,no information specified,,restaurant,,ab_16209,'Pizzeria Al Villaggio',,,"{'cuisine': None, 'isVegetarian': None, 'isVegan': None, 'isGlutenFree': None}",,247887464,cp_1259121746
205,205,46.10961151123047,11.140262603759766,no information specified,,restaurant,,ab_77977,'Il bosco incantato',,,"{'cuisine': None, 'isVegetarian': None, 'isVegan': None, 'isGlutenFree': None}",,259973562,cp_5221076797
206,206,46.0457878112793,11.133090019226074,no information specified,,theatre,,ab_68121,'Teatro Sanbàpolis',,,"{'cuisine': None, 'isVegetarian': None, 'isVegan': None, 'isGlutenFree': None}",,265581228,cp_9595011550
207,207,46.06376266479492,11.128729820251465,no information specified,,theatre,,ab_42926,'Teatro San Marco',,,"{'cuisine': None, 'isVegetarian': None, 'isVegan': None, 'isGlutenFree': None}",,265659089,cp_4960432655
208,208,46.07389068603516,11.150733947753906,no information specified,,parking,,ab_1348,,,,"{'cuisine': None, 'isVegetarian': None, 'isVegan': None, 'isGlutenFree': None}",,266156643,cp_3795596766
209,209,46.04878234863281,11.145864486694336,no information specified,,parking,,ab_2352,,,,"{'cuisine': None, 'isVegetarian': None, 'isVegan': None, 'isGlutenFree': None}",,266179021,cp_9862819434
210,210,46.06748580932617,11.12187957763672,no information specified,"Summer (1 June to 30 September) We-Mo 10:00-13:00 and 14:00-18:00; Winter (1 October to 31 May) Mo, We, Th, Fr, Sa 9:30-12:30 and 14:00-17:30, Su 10:00-13:00 and 14:00-18:00",museum,,ab_94697,'Museo Diocesano Tridentino',,,"{'cuisine': None, 'isVegetarian': None, 'isVegan': None, 'isGlutenFree': None}",,267234391,cp_6605044762
211,211,46.06772613525391,11.121012687683104,no information specified,,cafe,,ab_33098,'Caffè Portici',,,"{'cuisine': None, 'isVegetarian': None, 'isVegan': None, 'isGlutenFree': None}",,268401562,cp_3111911522
212,212,46.067752838134766,11.12206745147705,no information specified,,cafe,,ab_89888,'Bar Pasi',,,"{'cuisine': None, 'isVegetarian': None, 'isVegan': None, 'isGlutenFree': None}",,268401567,cp_7062548527
213,213,46.0674057006836,11.12438678741455,no information specified,"Mo-Sa 10:00-16:00,18:00-24:00",restaurant,,ab_3568,'Old Bar & Food',,,"{'cuisine': None, 'isVegetarian': None, 'isVegan': None, 'isGlutenFree': None}",,268430904,cp_1269361367
214,214,46.0672721862793,11.12564182281494,no information specified,Mo-Fr 07:00-21:00; Sa 07:00-12:00,cafe,,ab_63200,'Johnny Bar',,,"{'cuisine': None, 'isVegetarian': None, 'isVegan': None, 'isGlutenFree': None}",,268430906,cp_8524291864
215,215,46.06711196899414,11.124260902404783,no information specified,Mo-Sa 07:00-20:00,cafe,,ab_5506,'Jo Bar',,,"{'cuisine': None, 'isVegetarian': None, 'isVegan': None, 'isGlutenFree': None}",,268430908,cp_3512288536
216,216,46.06626510620117,11.122992515563965,no information specified,,restaurant,,ab_48506,'Trattoria Al Tino',,,"{'cuisine': None, 'isVegetarian': None, 'isVegan': None, 'isGlutenFree': None}",,268432521,cp_8057894574
217,217,46.0665283203125,11.123342514038086,no information specified,,pub,,ab_6307,'Pub Al Posta',,,"{'cuisine': None, 'isVegetarian': None, 'isVegan': None, 'isGlutenFree': None}",,268432522,cp_3854189378
218,218,46.06597518920898,11.12388038635254,no information specified,,restaurant,,ab_11476,'Trattoria Al Mercato',,,"{'cuisine': None, 'isVegetarian': None, 'isVegan': None, 'isGlutenFree': None}",,268435080,cp_5644781696
219,219,46.06583023071289,11.123634338378906,no information specified,,restaurant,,ab_19862,'Borgo Nuovo Trento',,,"{'cuisine': 'fish;pizza', 'isVegetarian': None, 'isVegan': None, 'isGlutenFree': None}",,268435081,cp_5685757666
220,220,46.06562423706055,11.12449550628662,no information specified,,cafe,False,ab_11039,'Uva & Menta Café',,,"{'cuisine': None, 'isVegetarian': None, 'isVegan': None, 'isGlutenFree': None}",,268436704,cp_5311476363
221,221,46.06755828857422,11.126537322998049,no information specified,Mo-Sa 07:00-20:00; Su 07:00-13:00,cafe,,ab_36108,'Caffè Venezia',,,"{'cuisine': None, 'isVegetarian': None, 'isVegan': None, 'isGlutenFree': None}",,268440165,cp_7638966447
222,222,46.06881332397461,11.126178741455078,no information specified,,cafe,,ab_52259,'Kafè Matrix',,,"{'cuisine': None, 'isVegetarian': None, 'isVegan': None, 'isGlutenFree': None}",,268440175,cp_7441638775
223,223,46.05666732788086,11.119877815246582,no information specified,,parking,,ab_34626,,,11,"{'cuisine': None, 'isVegetarian': None, 'isVegan': None, 'isGlutenFree': None}",,268810377,cp_1376016315
224,224,46.04372024536133,11.039022445678713,guidepost,,information,,ab_24518,,,,"{'cuisine': None, 'isVegetarian': None, 'isVegan': None, 'isGlutenFree': None}",,268924940,cp_5573590351
225,225,46.121952056884766,11.105649948120115,no information specified,,parking,,ab_27711,,,,"{'cuisine': None, 'isVegetarian': None, 'isVegan': None, 'isGlutenFree': None}",,269014255,cp_5334992361
226,226,46.0694580078125,11.123644828796388,no information specified,,museum,,ab_76370,'S.A.S.S.- Tridentum',,,"{'cuisine': None, 'isVegetarian': None, 'isVegan': None, 'isGlutenFree': None}",,269184847,cp_1639261426
227,227,46.0698356628418,11.12405490875244,no information specified,,cinema,,ab_64685,'Supercinema Vittoria',,,"{'cuisine': None, 'isVegetarian': None, 'isVegan': None, 'isGlutenFree': None}",,269184853,cp_7870625702
228,228,46.07341003417969,11.126572608947754,no information specified,"Tu-Sa 12:00-14:30,19:00-23:00; Su 19:00-23:00; Mo off",restaurant,,ab_99212,'Acquaefarina pizzaiolo per passione',,,"{'cuisine': 'pizza', 'isVegetarian': 'yes', 'isVegan': 'yes', 'isGlutenFree': None}",,269184890,cp_2768808939
229,229,46.07523727416992,11.125131607055664,no information specified,"Mo,We-Su 12:00-14:30,18:00-02:00; Tu off",restaurant,,ab_29862,'Pizzeria Vesuvio',,,"{'cuisine': 'pizza;fish;regional', 'isVegetarian': 'yes', 'isVegan': None, 'isGlutenFree': None}",,269193687,cp_4169033102
230,230,46.06476974487305,11.1234130859375,no information specified,"Mo,We 09:00-24:00; Tu 00:00-00:30; Th,Fr 00:00-00:30,09:00-24:00; Sa,Su 00:00-01:00,09:00-24:00",restaurant,,ab_30146,'Birreria Pizzeria Pedavena',,,"{'cuisine': None, 'isVegetarian': None, 'isVegan': None, 'isGlutenFree': None}",,269193730,cp_8028887018
231,231,46.06447982788086,11.123230934143066,no information specified,"12:00-15:00,19:30-24:00",restaurant,,ab_15739,'Trattoria al Volt',,,"{'cuisine': 'italian', 'isVegetarian': None, 'isVegan': None, 'isGlutenFree': None}",,269193732,cp_7489892244
232,232,46.07072830200195,11.124653816223145,no information specified,,restaurant,,ab_7160,'Pizzeria Primavera',,,"{'cuisine': 'pizza', 'isVegetarian': None, 'isVegan': None, 'isGlutenFree': None}",,269512908,cp_9468473019
233,233,46.06576156616211,11.136981010437012,no information specified,,parking,,ab_5801,,,,"{'cuisine': None, 'isVegetarian': None, 'isVegan': None, 'isGlutenFree': None}",,270721080,cp_9600926157
234,234,46.01945877075195,11.105284690856934,no information specified,,parking,,ab_58050,,,,"{'cuisine': None, 'isVegetarian': None, 'isVegan': None, 'isGlutenFree': None}",,272762419,cp_1278482234
235,235,46.07114791870117,11.185904502868652,no information specified,,parking,,ab_22989,,,,"{'cuisine': None, 'isVegetarian': None, 'isVegan': None, 'isGlutenFree': None}",,274233033,cp_5060802000
236,236,46.01973342895508,11.108115196228027,no information specified,,parking,,ab_76832,,,,"{'cuisine': None, 'isVegetarian': None, 'isVegan': None, 'isGlutenFree': None}",,275986622,cp_9599799416
237,237,46.01673126220703,11.107073783874512,no information specified,,parking,,ab_83164,,,,"{'cuisine': None, 'isVegetarian': None, 'isVegan': None, 'isGlutenFree': None}",,275988553,cp_1432295963
238,238,46.01179504394531,11.105475425720217,no information specified,,parking,,ab_38882,,,,"{'cuisine': None, 'isVegetarian': None, 'isVegan': None, 'isGlutenFree': None}",,276691077,cp_8839649220
239,239,46.01573944091797,11.105806350708008,no information specified,,parking,,ab_23428,,,,"{'cuisine': None, 'isVegetarian': None, 'isVegan': None, 'isGlutenFree': None}",,277085517,cp_7337208938
240,240,46.0178337097168,11.10744571685791,no information specified,,parking,,ab_45128,,,,"{'cuisine': None, 'isVegetarian': None, 'isVegan': None, 'isGlutenFree': None}",,277087207,cp_7273841082
241,241,46.01913070678711,11.104949951171877,no information specified,,parking,,ab_51578,,,,"{'cuisine': None, 'isVegetarian': None, 'isVegan': None, 'isGlutenFree': None}",,277087562,cp_5601196783
242,242,46.0709114074707,11.189905166625977,no information specified,,viewpoint,,ab_23113,,,,"{'cuisine': None, 'isVegetarian': None, 'isVegan': None, 'isGlutenFree': None}",,277934516,cp_6734419128
243,243,46.067474365234375,11.184715270996094,map,,information,,ab_26908,,,,"{'cuisine': None, 'isVegetarian': None, 'isVegan': None, 'isGlutenFree': None}",,277935176,cp_7915176875
244,244,46.06622695922852,11.156039237976074,no information specified,,cafe,,ab_1779,'Open',,,"{'cuisine': None, 'isVegetarian': None, 'isVegan': None, 'isGlutenFree': None}",,279462366,cp_9613603411
245,245,46.01767349243164,11.105069160461426,no information specified,,pitch,,ab_56161,,volleyball,,"{'cuisine': None, 'isVegetarian': None, 'isVegan': None, 'isGlutenFree': None}",,279578864,cp_2882249676
246,246,46.09129333496094,11.166438102722168,no information specified,,parking,,ab_3455,,,,"{'cuisine': None, 'isVegetarian': None, 'isVegan': None, 'isGlutenFree': None}",,282421622,cp_9601047767
247,247,46.13203430175781,11.141654014587402,no information specified,,parking,,ab_36509,,,,"{'cuisine': None, 'isVegetarian': None, 'isVegan': None, 'isGlutenFree': None}",,282793806,cp_8585851466
248,248,46.131797790527344,11.141878128051758,no information specified,,picnic_site,,ab_23268,,,,"{'cuisine': None, 'isVegetarian': None, 'isVegan': None, 'isGlutenFree': None}",,282793809,cp_4274937035
249,249,46.06475830078125,11.150452613830566,no information specified,,restaurant,,ab_33773,'Pizzeria OroStube',,,"{'cuisine': 'pizza', 'isVegetarian': None, 'isVegan': None, 'isGlutenFree': None}",,288938675,cp_1812636399
250,250,46.06612396240234,11.15481948852539,no information specified,,restaurant,,ab_86577,'Pizzeria Salesà',,50,"{'cuisine': 'pizza', 'isVegetarian': None, 'isVegan': None, 'isGlutenFree': None}",,289225782,cp_8257615668
251,251,46.06029891967773,11.158148765563965,no information specified,,parking,,ab_33766,,,,"{'cuisine': None, 'isVegetarian': None, 'isVegan': None, 'isGlutenFree': None}",,289245103,cp_2666865751
252,252,46.02384948730469,11.180241584777832,guidepost,,information,,ab_43599,'Vigolo Vattaro - Rif. Maranza',,,"{'cuisine': None, 'isVegetarian': None, 'isVegan': None, 'isGlutenFree': None}",yes,290675889,cp_9350528691
253,253,46.07697296142578,11.141749382019045,no information specified,,library,,ab_61880,'Biblioteca Argentario',,,"{'cuisine': None, 'isVegetarian': None, 'isVegan': None, 'isGlutenFree': None}",,292004245,cp_2471273004
254,254,46.07527160644531,11.13790225982666,no information specified,Tu-Su 12:00-14:00; Tu-Su 18:30-23:00,restaurant,,ab_84812,'Pizzeria Quattro Stagioni',,,"{'cuisine': 'pizza', 'isVegetarian': None, 'isVegan': None, 'isGlutenFree': None}",,292021580,cp_2791212224
255,255,46.0760498046875,11.146743774414062,no information specified,,pub,,ab_65980,,,,"{'cuisine': None, 'isVegetarian': None, 'isVegan': None, 'isGlutenFree': None}",,292021803,cp_8562746989
256,256,46.06932067871094,11.075325965881348,no information specified,,parking,,ab_75942,,,,"{'cuisine': None, 'isVegetarian': None, 'isVegan': None, 'isGlutenFree': None}",,293333188,cp_1923803214
257,257,46.05065536499024,11.069311141967772,no information specified,,parking,,ab_2185,,,,"{'cuisine': None, 'isVegetarian': None, 'isVegan': None, 'isGlutenFree': None}",,293333189,cp_8504948826
258,258,46.05016326904297,11.067954063415527,no information specified,,parking,,ab_25668,,,,"{'cuisine': None, 'isVegetarian': None, 'isVegan': None, 'isGlutenFree': None}",,293333190,cp_4161338423
259,259,46.04823303222656,11.065044403076172,no information specified,,parking,,ab_50329,,,,"{'cuisine': None, 'isVegetarian': None, 'isVegan': None, 'isGlutenFree': None}",,293333192,cp_6583053098
260,260,46.0429573059082,11.06399917602539,no information specified,,parking,,ab_93638,,,,"{'cuisine': None, 'isVegetarian': None, 'isVegan': None, 'isGlutenFree': None}",,293333194,cp_4688245998
261,261,46.04452896118164,11.06091022491455,no information specified,,parking,,ab_49819,,,,"{'cuisine': None, 'isVegetarian': None, 'isVegan': None, 'isGlutenFree': None}",,293333195,cp_2469717444
262,262,46.041542053222656,11.06017780303955,no information specified,,parking,,ab_3487,,,,"{'cuisine': None, 'isVegetarian': None, 'isVegan': None, 'isGlutenFree': None}",,293333196,cp_7330573011
263,263,46.06504440307617,11.041987419128418,no information specified,,attraction,,ab_5429,"""Santuario e Monastero Sant'Anna""",,,"{'cuisine': None, 'isVegetarian': None, 'isVegan': None, 'isGlutenFree': None}",,293338582,cp_5705702023
264,264,46.089115142822266,11.131258964538574,no information specified,,cafe,,ab_35803,,,,"{'cuisine': None, 'isVegetarian': None, 'isVegan': None, 'isGlutenFree': None}",,298086065,cp_1454125031
265,265,46.093971252441406,11.130589485168455,no information specified,"Mo-Su 11:30-14:30, 18:00-23:30",restaurant,,ab_83399,'Ristorante Ai Canopi',,,"{'cuisine': 'pizza;indian', 'isVegetarian': None, 'isVegan': None, 'isGlutenFree': None}",,298086066,cp_2129255991
266,266,45.9627571105957,11.01158046722412,guidepost,,information,,ab_24068,'La Becca',,,"{'cuisine': None, 'isVegetarian': None, 'isVegan': None, 'isGlutenFree': None}",yes,307213801,cp_2365503437
267,267,45.97666931152344,11.15127658843994,guidepost,,information,,ab_86967,,,,"{'cuisine': None, 'isVegetarian': None, 'isVegan': None, 'isGlutenFree': None}",yes,308828312,cp_3128388382
268,268,46.06135940551758,11.150179862976074,no information specified,,playground,,ab_72019,,,,"{'cuisine': None, 'isVegetarian': None, 'isVegan': None, 'isGlutenFree': None}",,361378960,cp_4674137556
269,269,46.07114410400391,11.124173164367676,no information specified,,hotel,,ab_44027,'Hotel America',,,"{'cuisine': None, 'isVegetarian': None, 'isVegan': None, 'isGlutenFree': None}",,364822145,cp_5258375010
270,270,46.08648300170898,11.121068000793455,no information specified,,playground,,ab_16608,,,,"{'cuisine': None, 'isVegetarian': None, 'isVegan': None, 'isGlutenFree': None}",,365499675,cp_1429661727
271,271,46.08723068237305,11.12135887145996,no information specified,,cafe,,ab_80012,'Caffè al Parco',,,"{'cuisine': None, 'isVegetarian': None, 'isVegan': None, 'isGlutenFree': None}",,365499676,cp_1969485219
272,272,46.04070281982422,11.154743194580078,no information specified,,parking,,ab_6892,,,,"{'cuisine': None, 'isVegetarian': None, 'isVegan': None, 'isGlutenFree': None}",,365500220,cp_2539057458
273,273,46.0540885925293,11.169154167175291,no information specified,,viewpoint,,ab_40699,,,,"{'cuisine': None, 'isVegetarian': None, 'isVegan': None, 'isGlutenFree': None}",,365500517,cp_8665703040
274,274,46.091434478759766,11.160911560058594,no information specified,,viewpoint,,ab_47098,,,,"{'cuisine': None, 'isVegetarian': None, 'isVegan': None, 'isGlutenFree': None}",,380875070,cp_6894694431
275,275,46.07389068603516,11.184059143066406,no information specified,,viewpoint,,ab_8349,'Cima Celva',,,"{'cuisine': None, 'isVegetarian': None, 'isVegan': None, 'isGlutenFree': None}",,391038683,cp_4109692966
276,276,46.04288101196289,11.180010795593262,no information specified,,parking,,ab_79114,,,,"{'cuisine': None, 'isVegetarian': None, 'isVegan': None, 'isGlutenFree': None}",,392387072,cp_3331508320
277,277,46.06456756591797,11.095208168029783,no information specified,,hostel,,ab_45939,'Agritur DEPEDRI',,,"{'cuisine': None, 'isVegetarian': None, 'isVegan': None, 'isGlutenFree': None}",,417327450,cp_6367809460
278,278,46.0532455444336,11.181929588317873,guidepost,,information,,ab_90329,'Spiaz de le Patate',,,"{'cuisine': None, 'isVegetarian': None, 'isVegan': None, 'isGlutenFree': None}",,424308123,cp_4233345176
279,279,46.04315185546875,11.037962913513184,no information specified,,parking,,ab_84744,,,,"{'cuisine': None, 'isVegetarian': None, 'isVegan': None, 'isGlutenFree': None}",,424453247,cp_9450421522
280,280,46.05796813964844,11.132525444030762,no information specified,,cafe,,ab_6415,'Blu Bar',,,"{'cuisine': None, 'isVegetarian': None, 'isVegan': None, 'isGlutenFree': None}",,427941701,cp_1138279050
281,281,46.044918060302734,11.128463745117188,no information specified,,parking,,ab_45306,'Parcheggio Big Center',,,"{'cuisine': None, 'isVegetarian': None, 'isVegan': None, 'isGlutenFree': None}",,427963801,cp_7350453671
282,282,46.04830932617188,11.12391757965088,no information specified,,pitch,,ab_25560,,table_tennis,,"{'cuisine': None, 'isVegetarian': None, 'isVegan': None, 'isGlutenFree': None}",,428313932,cp_9939316871
283,283,46.05174255371094,11.127649307250977,no information specified,,library,,ab_63248,'Biblioteca Clarina',,,"{'cuisine': None, 'isVegetarian': None, 'isVegan': None, 'isGlutenFree': None}",,428313995,cp_9372510011
284,284,46.04923629760742,11.1295804977417,no information specified,,parking,,ab_40369,,,,"{'cuisine': None, 'isVegetarian': None, 'isVegan': None, 'isGlutenFree': None}",,428314033,cp_7478572480
285,285,46.04821014404297,11.12411880493164,no information specified,,playground,,ab_8549,,,,"{'cuisine': None, 'isVegetarian': None, 'isVegan': None, 'isGlutenFree': None}",,428314137,cp_8078708088
286,286,46.047508239746094,11.126131057739258,no information specified,Mo-Su 08:00-24:00,restaurant,,ab_76045,'Pizzorante Bar Groff',,,"{'cuisine': None, 'isVegetarian': None, 'isVegan': None, 'isGlutenFree': None}",,428639276,cp_1707478847
287,287,46.05600357055664,11.131473541259766,no information specified,,restaurant,False,ab_41992,'Ristorante Loto S.r.l.',,100,"{'cuisine': 'italian', 'isVegetarian': None, 'isVegan': None, 'isGlutenFree': None}",,428644278,cp_8693390829
288,288,46.05632019042969,11.128761291503906,no information specified,Su Off,restaurant,,ab_35861,'Blue Sax',,,"{'cuisine': 'pizza', 'isVegetarian': None, 'isVegan': None, 'isGlutenFree': None}",,430531035,cp_1183473898
289,289,46.00675582885742,11.12857723236084,no information specified,Mo-Sa 06:30-20:00; Su 08:00-20:00,cafe,,ab_59772,"'Bar Pasticceria ""Dolce Cuore""'",,,"{'cuisine': None, 'isVegetarian': None, 'isVegan': None, 'isGlutenFree': None}",,430543937,cp_3721822924
290,290,46.06840133666992,11.121418952941896,no information specified,,cafe,,ab_36287,'Caffè Olimpia',,,"{'cuisine': None, 'isVegetarian': None, 'isVegan': None, 'isGlutenFree': None}",,430669783,cp_4503936686
291,291,46.07036972045898,11.12121295928955,office,Mo-Su 09:00-19:00,information,,ab_21834,'Ufficio Informazioni - APT Trento,,,"{'cuisine': None, 'isVegetarian': None, 'isVegan': None, 'isGlutenFree': None}",,430669788,cp_2947483627
292,292,46.06892776489258,11.119061470031738,no information specified,Mo-Sa 18:00-24:00,pub,,ab_91968,'Bar Picaro',,,"{'cuisine': None, 'isVegetarian': None, 'isVegan': None, 'isGlutenFree': None}",,430673952,cp_4056323872
293,293,46.06907653808594,11.118671417236328,no information specified,,restaurant,,ab_47047,"""Sapori d'Asia""",,,"{'cuisine': 'chinese', 'isVegetarian': None, 'isVegan': None, 'isGlutenFree': None}",,430673959,cp_1693737670
294,294,46.06947708129883,11.119979858398438,no information specified,,cafe,,ab_22371,'Osteria Trentina',,,"{'cuisine': None, 'isVegetarian': None, 'isVegan': None, 'isGlutenFree': None}",,430675313,cp_9037451775
295,295,46.06991195678711,11.124310493469238,no information specified,,cafe,,ab_74240,'Caffè Excelsior',,,"{'cuisine': 'biscuit', 'isVegetarian': None, 'isVegan': None, 'isGlutenFree': None}",,430690365,cp_9083488931
296,296,46.04060363769531,11.13290309906006,no information specified,"Mo-Su 11:30-14:30,17:30-23:30",restaurant,,ab_33126,'La Terrazza',,,"{'cuisine': 'indian;italian;pizza', 'isVegetarian': None, 'isVegan': None, 'isGlutenFree': None}",,431475183,cp_7140405919
297,297,46.07734680175781,11.120283126831056,no information specified,,cafe,,ab_41695,'Pasticceria Bar Mazzoleni',,,"{'cuisine': None, 'isVegetarian': None, 'isVegan': None, 'isGlutenFree': None}",,431618063,cp_6381290928
298,298,46.07101058959961,11.117009162902832,no information specified,,restaurant,,ab_25341,'Dolomiti',,,"{'cuisine': None, 'isVegetarian': None, 'isVegan': None, 'isGlutenFree': None}",,431622346,cp_9953413389
299,299,46.06499481201172,11.114105224609377,no information specified,"Tu-Su 12:00-14:30,19:00-23:30",restaurant,,ab_64453,'Sapori Mediterranei',,,"{'cuisine': 'fish;pizza;barbecue', 'isVegetarian': None, 'isVegan': None, 'isGlutenFree': None}",,431648975,cp_7506964649
300,300,46.06657028198242,11.117168426513672,no information specified,,restaurant,,ab_10585,'Pizzeria da Albert',,,"{'cuisine': 'pizza', 'isVegetarian': None, 'isVegan': None, 'isGlutenFree': None}",,431658690,cp_7255871155
301,301,46.06574249267578,11.121244430541992,no information specified,"Mo-Su 18:00-24:00; Th 07:00-14:00,18:00-24:00",restaurant,,ab_20808,"""Pizzeria Tetley's""",,,"{'cuisine': None, 'isVegetarian': None, 'isVegan': None, 'isGlutenFree': None}",,431658709,cp_7486808183
302,302,46.06558609008789,11.12226676940918,no information specified,"Mo-Sa 12:00-14:30,19:30-22:30; Su Off",restaurant,,ab_60379,'Orso Grigio',,,"{'cuisine': 'italian;regional', 'isVegetarian': None, 'isVegan': None, 'isGlutenFree': None}",,431658713,cp_3262513283
303,303,46.06357192993164,11.131049156188965,no information specified,"Mo-Fr 08:30-14:30, 18:00-00:00; Sa-Su 17:00-00:00",restaurant,,ab_39029,'Ristorante Pizzeria Doc',,,"{'cuisine': 'pizza;regional;breakfast;coffee_shop;bavarian;italian;italian_pizza;local;german;friture;seafood;ice_cream;pasta;chicken;sausage;cake;tea', 'isVegetarian': None, 'isVegan': None, 'isGlutenFree': None}",,432473109,cp_2573395385
304,304,46.06398391723633,11.123347282409668,no information specified,Mo-Fr 07:00-20:00; Sa 07:00-13:00,cafe,,ab_66056,'Bar 3 Portoni',,,"{'cuisine': None, 'isVegetarian': None, 'isVegan': None, 'isGlutenFree': None}",,432480281,cp_2524549806
305,305,46.09454345703125,11.109881401062012,no information specified,,pub,,ab_6957,'Tonyk Club',,,"{'cuisine': None, 'isVegetarian': None, 'isVegan': None, 'isGlutenFree': None}",,432873025,cp_7022735253
306,306,46.03774642944336,11.10538101196289,no information specified,,restaurant,,ab_98783,'Pizzeria da Mimmo',,,"{'cuisine': 'pizza', 'isVegetarian': None, 'isVegan': None, 'isGlutenFree': None}",,432987066,cp_5116456703
307,307,46.03452301025391,11.153945922851562,no information specified,,picnic_site,,ab_95020,,,,"{'cuisine': None, 'isVegetarian': None, 'isVegan': None, 'isGlutenFree': None}",,434165364,cp_5045950010
308,308,46.03913879394531,11.154175758361816,no information specified,,picnic_site,,ab_19157,,,,"{'cuisine': None, 'isVegetarian': None, 'isVegan': None, 'isGlutenFree': None}",,434165377,cp_4030619688
309,309,46.04104232788086,11.155292510986328,no information specified,,picnic_site,,ab_14714,,,,"{'cuisine': None, 'isVegetarian': None, 'isVegan': None, 'isGlutenFree': None}",,434165380,cp_9712866382
310,310,46.06843566894531,11.124621391296388,no information specified,,cafe,,ab_37842,'Carducci',,,"{'cuisine': None, 'isVegetarian': None, 'isVegan': None, 'isGlutenFree': None}",,439912351,cp_2754604606
311,311,46.06891632080078,11.122626304626465,no information specified,,cafe,,ab_14109,'Bar Rex',,,"{'cuisine': None, 'isVegetarian': None, 'isVegan': None, 'isGlutenFree': None}",,439912423,cp_3833645226
312,312,46.04746627807617,11.145161628723145,no information specified,,restaurant,,ab_60306,'Ristorante Bar Pizzeria',,,"{'cuisine': 'indian', 'isVegetarian': None, 'isVegan': None, 'isGlutenFree': None}",,441414833,cp_7428503887
313,313,46.06680679321289,11.140582084655762,no information specified,,restaurant,,ab_3314,"'Trattoria ""Al Parol""'",,,"{'cuisine': 'italian', 'isVegetarian': None, 'isVegan': None, 'isGlutenFree': None}",,442218340,cp_5346845401
314,314,46.07175827026367,11.113531112670898,no information specified,Tu-Su 09:00-18:00,museum,,ab_19044,'Le Gallerie - Museo Storico del Trentino',,,"{'cuisine': None, 'isVegetarian': None, 'isVegan': None, 'isGlutenFree': None}",,446773163,cp_3022139397
315,315,46.02056503295898,11.04226016998291,no information specified,,sports_centre,,ab_87362,'Centro Fondo alle Viote sul Monte Bondone',multi,,"{'cuisine': None, 'isVegetarian': None, 'isVegan': None, 'isGlutenFree': None}",,454219780,cp_6437613156
316,316,46.04524993896485,11.14963722229004,no information specified,,viewpoint,,ab_57460,'Terrazza Panoramica della Grotta',,,"{'cuisine': None, 'isVegetarian': None, 'isVegan': None, 'isGlutenFree': None}",,457107420,cp_3981392598
317,317,46.02312469482422,11.038593292236328,no information specified,,picnic_site,,ab_76098,,,,"{'cuisine': None, 'isVegetarian': None, 'isVegan': None, 'isGlutenFree': None}",,462257880,cp_7624776699
318,318,46.06757736206055,11.120266914367676,no information specified,Su Off,restaurant,,ab_86576,'Ai Vicoli',,,"{'cuisine': None, 'isVegetarian': None, 'isVegan': None, 'isGlutenFree': None}",,463189395,cp_8674724304
319,319,46.07609939575195,11.124073028564451,no information specified,"Mo-Fr 12:00-14:30,18:30-23:30; Sa,Su 18:30-23:30",restaurant,,ab_41569,'Ristorante Pizzeria Nuova Castelli',,,"{'cuisine': 'pizza', 'isVegetarian': 'yes', 'isVegan': None, 'isGlutenFree': None}",,468069349,cp_3471623197
320,320,46.05375289916992,11.169840812683104,guidepost,,information,,ab_32477,,,,"{'cuisine': None, 'isVegetarian': None, 'isVegan': None, 'isGlutenFree': None}",,469206786,cp_5086508352
321,321,46.05204391479492,11.170937538146973,guidepost,,information,,ab_24927,,,,"{'cuisine': None, 'isVegetarian': None, 'isVegan': None, 'isGlutenFree': None}",,469206788,cp_2342278188
322,322,46.04172134399414,11.181706428527832,guidepost,,information,,ab_43111,,,,"{'cuisine': None, 'isVegetarian': None, 'isVegan': None, 'isGlutenFree': None}",,469206795,cp_8518443348
323,323,46.04840087890625,11.183282852172852,guidepost,,information,,ab_6935,,,,"{'cuisine': None, 'isVegetarian': None, 'isVegan': None, 'isGlutenFree': None}",,469206796,cp_7521281458
324,324,46.04999923706055,11.18496799468994,guidepost,,information,,ab_94575,'Stoi de Chegul',,,"{'cuisine': None, 'isVegetarian': None, 'isVegan': None, 'isGlutenFree': None}",,469206797,cp_1340289458
325,325,46.050907135009766,11.184489250183104,guidepost,,information,,ab_63752,,,,"{'cuisine': None, 'isVegetarian': None, 'isVegan': None, 'isGlutenFree': None}",,469206799,cp_3683616399
326,326,46.051029205322266,11.185395240783691,no information specified,,viewpoint,,ab_89875,,,,"{'cuisine': None, 'isVegetarian': None, 'isVegan': None, 'isGlutenFree': None}",,469206830,cp_5603453859
327,327,46.04447555541992,11.033751487731934,guidepost,,information,,ab_53021,,,,"{'cuisine': None, 'isVegetarian': None, 'isVegan': None, 'isGlutenFree': None}",,474779069,cp_6998873423
328,328,46.04497909545898,11.034229278564451,guidepost,,information,,ab_51257,,,,"{'cuisine': None, 'isVegetarian': None, 'isVegan': None, 'isGlutenFree': None}",,474779070,cp_8490739165
329,329,46.045188903808594,11.034136772155762,guidepost,,information,,ab_45596,,,,"{'cuisine': None, 'isVegetarian': None, 'isVegan': None, 'isGlutenFree': None}",,474779072,cp_8080099121
330,330,46.04179763793945,11.037330627441406,guidepost,,information,,ab_7178,,,,"{'cuisine': None, 'isVegetarian': None, 'isVegan': None, 'isGlutenFree': None}",,474779074,cp_8408812564
331,331,46.043060302734375,11.038509368896484,no information specified,,picnic_site,,ab_41688,,,,"{'cuisine': None, 'isVegetarian': None, 'isVegan': None, 'isGlutenFree': None}",,474779075,cp_4846125876
332,332,46.04376983642578,11.038569450378418,guidepost,,information,,ab_87043,,,,"{'cuisine': None, 'isVegetarian': None, 'isVegan': None, 'isGlutenFree': None}",,474779079,cp_9006755358
333,333,46.046993255615234,11.04308795928955,guidepost,,information,,ab_94525,,,,"{'cuisine': None, 'isVegetarian': None, 'isVegan': None, 'isGlutenFree': None}",,474779080,cp_1936290738
334,334,46.05400466918945,11.041089057922363,guidepost,,information,,ab_29572,,,,"{'cuisine': None, 'isVegetarian': None, 'isVegan': None, 'isGlutenFree': None}",,474779168,cp_7981125444
335,335,46.05064010620117,11.046772956848145,no information specified,,picnic_site,,ab_25873,,,,"{'cuisine': None, 'isVegetarian': None, 'isVegan': None, 'isGlutenFree': None}",,474779169,cp_3355246195
336,336,46.05653381347656,11.061649322509766,no information specified,,picnic_site,,ab_19380,,,,"{'cuisine': None, 'isVegetarian': None, 'isVegan': None, 'isGlutenFree': None}",,474779171,cp_8700751798
337,337,46.06982803344727,11.127410888671877,no information specified,Tu-Sa 22:00-3:00,pub,,ab_22864,'H/àkka/',,,"{'cuisine': None, 'isVegetarian': None, 'isVegan': None, 'isGlutenFree': None}",,550687807,cp_2133126144
338,338,46.054290771484375,11.13302230834961,no information specified,,fitness_centre,,ab_89356,'Palestra Trim',,,"{'cuisine': None, 'isVegetarian': None, 'isVegan': None, 'isGlutenFree': None}",,550687814,cp_3771583998
339,339,46.047393798828125,11.087862014770508,no information specified,,picnic_site,,ab_28370,,,,"{'cuisine': None, 'isVegetarian': None, 'isVegan': None, 'isGlutenFree': None}",,554177134,cp_3838668533
340,340,46.07195663452149,11.12444019317627,presenti ascensori per carrozzina ma necessitano di chiamata del personale,"Tu-Su 12:00-14:30,19:00-02:00; Sa 19:00-02:00",restaurant,,ab_68232,'Ristorante Pizzeria Green Tower',,,"{'cuisine': 'pizza;regional', 'isVegetarian': 'yes', 'isVegan': 'yes', 'isGlutenFree': None}",,556679636,cp_2864618456
341,341,46.06414031982422,11.14805507659912,no information specified,,picnic_site,,ab_52232,,,,"{'cuisine': None, 'isVegetarian': None, 'isVegan': None, 'isGlutenFree': None}",,556932203,cp_8088567829
342,342,46.06196594238281,11.151573181152344,no information specified,,guest_house,,ab_8007,'Cantina Ester',,,"{'cuisine': None, 'isVegetarian': None, 'isVegan': None, 'isGlutenFree': None}",,556932213,cp_4922542156
343,343,46.06731414794922,11.165980339050291,no information specified,,playground,,ab_46190,,,,"{'cuisine': None, 'isVegetarian': None, 'isVegan': None, 'isGlutenFree': None}",,556978699,cp_1220783016
344,344,46.06787872314453,11.123148918151855,no information specified,,playground,,ab_31802,,,,"{'cuisine': None, 'isVegetarian': None, 'isVegan': None, 'isGlutenFree': None}",,557149929,cp_8448295507
345,345,46.06884002685547,11.121569633483888,no information specified,Mo-Su 11:30-23:30,restaurant,,ab_39557,'Ristorante Pizzeria Chistè',,,"{'cuisine': 'neapolitan;pizza;fish', 'isVegetarian': 'yes', 'isVegan': None, 'isGlutenFree': None}",,557149998,cp_9193205025
346,346,46.06925964355469,11.120014190673828,no information specified,,cafe,,ab_38139,'Dersut Caffè',,,"{'cuisine': None, 'isVegetarian': None, 'isVegan': None, 'isGlutenFree': None}",,557150086,cp_9952826862
347,347,46.06754684448242,11.120908737182615,no information specified,,cafe,,ab_31834,'Caffè 34',,,"{'cuisine': None, 'isVegetarian': None, 'isVegan': None, 'isGlutenFree': None}",,557150243,cp_9828406403
348,348,46.068336486816406,11.119847297668455,no information specified,"Mo-Sa 12:00-14:30,19:00-24:00",restaurant,,ab_52681,"""Rosa D'Oro""",,,"{'cuisine': 'regional;pizza', 'isVegetarian': None, 'isVegan': None, 'isGlutenFree': None}",,557150278,cp_5026571462
349,349,46.06868362426758,11.120248794555664,no information specified,,hotel,,ab_83082,'Accademia',,,"{'cuisine': None, 'isVegetarian': None, 'isVegan': None, 'isGlutenFree': None}",,557169206,cp_9461003258
350,350,46.06745529174805,11.117881774902344,no information specified,,restaurant,,ab_87883,'Orient',,,"{'cuisine': 'chinese;japanese;thai', 'isVegetarian': None, 'isVegan': None, 'isGlutenFree': None}",,557197347,cp_6301518241
351,351,46.06692123413086,11.12063694000244,no information specified,,restaurant,,ab_53865,'Al Duomo',,,"{'cuisine': 'pizza', 'isVegetarian': None, 'isVegan': None, 'isGlutenFree': None}",,557197352,cp_4654648613
352,352,46.07182693481445,11.119355201721191,no information specified,,taxi,,ab_7943,,,,"{'cuisine': None, 'isVegetarian': None, 'isVegan': None, 'isGlutenFree': None}",,557992543,cp_2881594709
353,353,46.06893539428711,11.120061874389648,no information specified,Mo-Fr 07:00-19:30; Sa 07:00-13:00,cafe,,ab_54944,'Bar Orchidea',,,"{'cuisine': None, 'isVegetarian': None, 'isVegan': None, 'isGlutenFree': None}",,558528917,cp_1226401437
354,354,46.06449890136719,11.12119483947754,no information specified,,cafe,,ab_70638,'Bar Roby',,,"{'cuisine': None, 'isVegetarian': None, 'isVegan': None, 'isGlutenFree': None}",,558621094,cp_4664937340
355,355,46.070194244384766,11.125069618225098,no information specified,,restaurant,,ab_74186,'Antica Trattoria Due Mori',,,"{'cuisine': 'italian', 'isVegetarian': None, 'isVegan': None, 'isGlutenFree': None}",,558628481,cp_8393112148
356,356,46.07305145263672,11.113516807556152,no information specified,,viewpoint,,ab_61244,,,,"{'cuisine': None, 'isVegetarian': None, 'isVegan': None, 'isGlutenFree': None}",,558628542,cp_7378949908
357,357,46.06515502929688,11.102514266967772,no information specified,,viewpoint,,ab_48106,,,,"{'cuisine': None, 'isVegetarian': None, 'isVegan': None, 'isGlutenFree': None}",,559245410,cp_4965957279
358,358,46.06778717041016,11.121268272399902,no information specified,,hotel,,ab_27817,'Albergo Venezia',,,"{'cuisine': None, 'isVegetarian': None, 'isVegan': None, 'isGlutenFree': None}",,563398204,cp_9111996921
359,359,46.06786346435547,11.121313095092772,no information specified,,hotel,,ab_25555,"""Garnì Aquila d'Oro""",,,"{'cuisine': None, 'isVegetarian': None, 'isVegan': None, 'isGlutenFree': None}",,563398639,cp_5680668479
360,360,46.06794738769531,11.121254920959473,no information specified,,hotel,,ab_24675,'Albergo Venezia',,,"{'cuisine': None, 'isVegetarian': None, 'isVegan': None, 'isGlutenFree': None}",,563398648,cp_5152311867
361,361,46.06850814819336,11.123405456542969,no information specified,,cafe,,ab_9902,'Moki',,,"{'cuisine': None, 'isVegetarian': None, 'isVegan': None, 'isGlutenFree': None}",,563754421,cp_7126032253
362,362,46.06977081298828,11.125435829162598,no information specified,"Mo-Sa 12:00-14:30,18:00-24:00",restaurant,,ab_73813,'Alla Grotta',,,"{'cuisine': 'pizza;regional', 'isVegetarian': 'yes', 'isVegan': 'yes', 'isGlutenFree': None}",,563754485,cp_7246033950
363,363,46.07109832763672,11.125843048095703,no information specified,,restaurant,,ab_60616,'Alla Mostra',,,"{'cuisine': 'pizza;italian', 'isVegetarian': None, 'isVegan': None, 'isGlutenFree': None}",,563754506,cp_2326254741
364,364,46.09039306640625,11.087020874023438,no information specified,,viewpoint,,ab_1441,,,,"{'cuisine': None, 'isVegetarian': None, 'isVegan': None, 'isGlutenFree': None}",,564836324,cp_8040625357
365,365,46.06881332397461,11.121342658996582,no information specified,"Mo,We-Fr 07:00-19:30; Sa 07:30-19:30; Su 07:30-13:00",cafe,,ab_16855,"'Pasticceria Caffetteria""Casa del Cioccolato""'",,,"{'cuisine': None, 'isVegetarian': 'yes', 'isVegan': 'yes', 'isGlutenFree': None}",,570753040,cp_6791112500
366,366,46.06853485107422,11.123724937438965,no information specified,"Mo-Su 11:30-14:00,18:30-22:00",restaurant,,ab_2156,"""Ca' dei Gobj - Ristorante Birreria""",,,"{'cuisine': 'pizza;regional', 'isVegetarian': None, 'isVegan': None, 'isGlutenFree': None}",,570818625,cp_3211122279
367,367,46.07429122924805,11.135143280029297,no information specified,,parking,,ab_33203,,,,"{'cuisine': None, 'isVegetarian': None, 'isVegan': None, 'isGlutenFree': None}",,583525833,cp_3610213216
368,368,46.07369995117188,11.134199142456056,no information specified,"Mo-Su 11:30-14:00,18:30-23:00; Tu off",restaurant,,ab_4602,'Pizzeria Laste',,,"{'cuisine': 'pizza', 'isVegetarian': None, 'isVegan': None, 'isGlutenFree': None}",,583550447,cp_1883570641
369,369,46.07231140136719,11.077422142028809,no information specified,,picnic_site,,ab_67303,,,,"{'cuisine': None, 'isVegetarian': None, 'isVegan': None, 'isGlutenFree': None}",,600929993,cp_9558014631
370,370,46.07100677490234,11.122320175170898,no information specified,,restaurant,,ab_27830,'Clesio',,,"{'cuisine': 'italian', 'isVegetarian': None, 'isVegan': None, 'isGlutenFree': None}",,660602729,cp_1610649276
371,371,46.03388595581055,11.138250350952148,no information specified,,viewpoint,,ab_26895,,,,"{'cuisine': None, 'isVegetarian': None, 'isVegan': None, 'isGlutenFree': None}",,669930692,cp_8075386945
372,372,46.03240966796875,11.13936710357666,no information specified,,viewpoint,,ab_58382,,,,"{'cuisine': None, 'isVegetarian': None, 'isVegan': None, 'isGlutenFree': None}",,669952247,cp_6680750754
373,373,46.03423690795898,11.141754150390623,no information specified,,viewpoint,,ab_9719,,,,"{'cuisine': None, 'isVegetarian': None, 'isVegan': None, 'isGlutenFree': None}",,670093037,cp_5407581451
374,374,46.03108978271485,11.186412811279297,guidepost,,information,,ab_67860,'Piani di Vigo',,,"{'cuisine': None, 'isVegetarian': None, 'isVegan': None, 'isGlutenFree': None}",,676875507,cp_7122782773
375,375,46.03184509277344,11.18777561187744,no information specified,,viewpoint,,ab_42842,,,,"{'cuisine': None, 'isVegetarian': None, 'isVegan': None, 'isGlutenFree': None}",,676875508,cp_8205323605
376,376,46.07189178466797,11.162327766418455,no information specified,,playground,,ab_51364,,,,"{'cuisine': None, 'isVegetarian': None, 'isVegan': None, 'isGlutenFree': None}",,678066076,cp_6172989856
377,377,46.07602691650391,11.12334442138672,no information specified,,playground,,ab_84432,,,,"{'cuisine': None, 'isVegetarian': None, 'isVegan': None, 'isGlutenFree': None}",,704050053,cp_2286889187
378,378,46.09624099731445,11.130300521850586,guidepost,,information,,ab_10568,,,,"{'cuisine': None, 'isVegetarian': None, 'isVegan': None, 'isGlutenFree': None}",,711944361,cp_7602849658
379,379,46.09640121459961,11.130080223083496,guidepost,,information,,ab_94682,,,,"{'cuisine': None, 'isVegetarian': None, 'isVegan': None, 'isGlutenFree': None}",,711944435,cp_6755269259
380,380,46.099369049072266,11.132895469665527,guidepost,,information,,ab_55131,,,,"{'cuisine': None, 'isVegetarian': None, 'isVegan': None, 'isGlutenFree': None}",,711944462,cp_7374700297
381,381,46.0996208190918,11.132919311523438,guidepost,,information,,ab_8805,,,,"{'cuisine': None, 'isVegetarian': None, 'isVegan': None, 'isGlutenFree': None}",,711944490,cp_8734808736
382,382,46.09979248046875,11.139825820922852,guidepost,,information,,ab_14229,,,,"{'cuisine': None, 'isVegetarian': None, 'isVegan': None, 'isGlutenFree': None}",,711945433,cp_4546107141
383,383,46.09864044189453,11.142087936401367,guidepost,,information,,ab_70722,'Stoi',,,"{'cuisine': None, 'isVegetarian': None, 'isVegan': None, 'isGlutenFree': None}",yes,711945436,cp_2680264668
384,384,46.099491119384766,11.144087791442873,guidepost,,information,,ab_9139,,,,"{'cuisine': None, 'isVegetarian': None, 'isVegan': None, 'isGlutenFree': None}",,712001430,cp_9808523090
385,385,46.090065002441406,11.123714447021484,guidepost,,information,,ab_40401,,,,"{'cuisine': None, 'isVegetarian': None, 'isVegan': None, 'isGlutenFree': None}",,725504526,cp_9045214916
386,386,46.09196090698242,11.124109268188477,guidepost,,information,,ab_41757,,,,"{'cuisine': None, 'isVegetarian': None, 'isVegan': None, 'isGlutenFree': None}",,725504534,cp_8961979986
387,387,46.07950210571289,11.114675521850586,no information specified,,playground,,ab_98830,,,,"{'cuisine': None, 'isVegetarian': None, 'isVegan': None, 'isGlutenFree': None}",,726443028,cp_8715117782
388,388,46.09606552124024,11.128417015075684,guidepost,,information,,ab_20367,,,,"{'cuisine': None, 'isVegetarian': None, 'isVegan': None, 'isGlutenFree': None}",,727687470,cp_8820048464
389,389,46.095436096191406,11.1422119140625,guidepost,,information,,ab_98949,,,,"{'cuisine': None, 'isVegetarian': None, 'isVegan': None, 'isGlutenFree': None}",yes,727687472,cp_8519895603
390,390,46.09419631958008,11.125543594360352,guidepost,,information,,ab_84834,,,,"{'cuisine': None, 'isVegetarian': None, 'isVegan': None, 'isGlutenFree': None}",,727919858,cp_3038624135
391,391,46.03554916381836,11.104649543762209,guidepost,,information,,ab_64967,,,,"{'cuisine': None, 'isVegetarian': None, 'isVegan': None, 'isGlutenFree': None}",,737712224,cp_9929831739
392,392,46.03680419921875,11.105207443237305,guidepost,,information,,ab_18857,,,,"{'cuisine': None, 'isVegetarian': None, 'isVegan': None, 'isGlutenFree': None}",,737712441,cp_4814599778
393,393,46.033180236816406,11.097238540649414,guidepost,,information,,ab_90925,,,,"{'cuisine': None, 'isVegetarian': None, 'isVegan': None, 'isGlutenFree': None}",,737712460,cp_5522417187
394,394,46.033424377441406,11.10039520263672,guidepost,,information,,ab_74801,,,,"{'cuisine': None, 'isVegetarian': None, 'isVegan': None, 'isGlutenFree': None}",,737712480,cp_4482209645
395,395,46.03727722167969,11.107239723205566,guidepost,,information,,ab_65661,'Ravina',,,"{'cuisine': None, 'isVegetarian': None, 'isVegan': None, 'isGlutenFree': None}",,737712516,cp_5940001914
396,396,46.09466171264648,11.07196044921875,no information specified,,parking,,ab_29447,,,,"{'cuisine': None, 'isVegetarian': None, 'isVegan': None, 'isGlutenFree': None}",,759092725,cp_1484377954
397,397,46.02902221679688,11.164979934692385,guidepost,,information,,ab_94405,,,,"{'cuisine': None, 'isVegetarian': None, 'isVegan': None, 'isGlutenFree': None}",,762888948,cp_4795870411
398,398,46.03493118286133,11.154296875,guidepost,,information,,ab_60637,,,,"{'cuisine': None, 'isVegetarian': None, 'isVegan': None, 'isGlutenFree': None}",,762888952,cp_9403891867
399,399,46.02947998046875,11.1652193069458,guidepost,,information,,ab_3327,,,,"{'cuisine': None, 'isVegetarian': None, 'isVegan': None, 'isGlutenFree': None}",,762889044,cp_7331501526
400,400,46.02830505371094,11.16512680053711,guidepost,,information,,ab_36097,,,,"{'cuisine': None, 'isVegetarian': None, 'isVegan': None, 'isGlutenFree': None}",,762889086,cp_2150672270
401,401,46.03633117675781,11.151429176330566,guidepost,,information,,ab_2453,,,,"{'cuisine': None, 'isVegetarian': None, 'isVegan': None, 'isGlutenFree': None}",,762889091,cp_5069788104
402,402,46.03963851928711,11.15928077697754,guidepost,,information,,ab_75755,,,,"{'cuisine': None, 'isVegetarian': None, 'isVegan': None, 'isGlutenFree': None}",,762889120,cp_1451782839
403,403,46.03634262084961,11.154216766357422,guidepost,,information,,ab_75436,,,,"{'cuisine': None, 'isVegetarian': None, 'isVegan': None, 'isGlutenFree': None}",,762889129,cp_5708435955
404,404,46.03506851196289,11.151529312133787,guidepost,,information,,ab_21617,,,,"{'cuisine': None, 'isVegetarian': None, 'isVegan': None, 'isGlutenFree': None}",,762889170,cp_1472277664
405,405,46.03369903564453,11.16009521484375,guidepost,,information,,ab_39655,,,,"{'cuisine': None, 'isVegetarian': None, 'isVegan': None, 'isGlutenFree': None}",,762889203,cp_1447106610
406,406,46.061649322509766,11.091317176818848,guidepost,,information,,ab_53758,,,,"{'cuisine': None, 'isVegetarian': None, 'isVegan': None, 'isGlutenFree': None}",,764073197,cp_3734505691
407,407,46.06422424316406,11.096343040466309,no information specified,"Tu-Sa 12:00-14:30,19:00-22:00; Mo off",restaurant,,ab_5532,'Osteria San Rocco',,,"{'cuisine': 'italian', 'isVegetarian': None, 'isVegan': None, 'isGlutenFree': None}",,764073298,cp_5154368887
408,408,46.10419845581055,11.123380661010742,guidepost,,information,,ab_62527,,,,"{'cuisine': None, 'isVegetarian': None, 'isVegan': None, 'isGlutenFree': None}",,766088340,cp_1865154216
409,409,46.05599212646485,11.100350379943848,no information specified,,viewpoint,,ab_96743,,,,"{'cuisine': None, 'isVegetarian': None, 'isVegan': None, 'isGlutenFree': None}",,769072677,cp_3168909478
410,410,46.050514221191406,11.101564407348633,no information specified,,viewpoint,,ab_52053,,,,"{'cuisine': None, 'isVegetarian': None, 'isVegan': None, 'isGlutenFree': None}",,769072685,cp_4557477951
411,411,46.06365585327149,11.097708702087402,map,,information,,ab_25446,,,,"{'cuisine': None, 'isVegetarian': None, 'isVegan': None, 'isGlutenFree': None}",yes,769072687,cp_6340955457
412,412,46.02696990966797,11.058716773986816,no information specified,,viewpoint,,ab_39526,'Palon',,,"{'cuisine': None, 'isVegetarian': None, 'isVegan': None, 'isGlutenFree': None}",,802196772,cp_1204309724
413,413,46.07075881958008,11.12403392791748,no information specified,,restaurant,,ab_17111,'Ristorante al Vò',,,"{'cuisine': 'regional', 'isVegetarian': None, 'isVegan': None, 'isGlutenFree': None}",,811086967,cp_5901053586
414,414,46.06918716430664,11.124276161193848,no information specified,"Mo-Sa 07:00-12:30,15:00-19:30",cafe,,ab_74366,'Union Casa del Caffè',,,"{'cuisine': 'coffee_shop', 'isVegetarian': 'yes', 'isVegan': 'no', 'isGlutenFree': None}",,811086992,cp_1353040272
415,415,46.06693649291992,11.12027072906494,no information specified,,restaurant,,ab_61792,'Le due spade',,,"{'cuisine': None, 'isVegetarian': None, 'isVegan': None, 'isGlutenFree': None}",,811087041,cp_6736149326
416,416,46.06830596923828,11.116679191589355,no information specified,,parking,,ab_95455,,,1,"{'cuisine': None, 'isVegetarian': None, 'isVegan': None, 'isGlutenFree': None}",,811087095,cp_4029260195
417,417,46.07475662231445,11.12386417388916,no information specified,,restaurant,,ab_51379,'Ristorante/Pizzeria Petrarca',,,"{'cuisine': 'italian;pizza;regional', 'isVegetarian': None, 'isVegan': None, 'isGlutenFree': None}",,811087138,cp_2123388739
418,418,46.06386947631836,11.123412132263184,no information specified,,attraction,,ab_82511,'Arco dei Tre Portoni',,,"{'cuisine': None, 'isVegetarian': None, 'isVegan': None, 'isGlutenFree': None}",,822199030,cp_5820797118
419,419,46.02609634399414,11.18294906616211,guidepost,,information,,ab_27146,'Marzola Sud',,,"{'cuisine': None, 'isVegetarian': None, 'isVegan': None, 'isGlutenFree': None}",yes,850587203,cp_3144060706
420,420,46.06633377075195,11.127476692199709,no information specified,,pub,,ab_55565,'INorOUT',,,"{'cuisine': None, 'isVegetarian': None, 'isVegan': None, 'isGlutenFree': None}",,853801468,cp_6257948654
421,421,46.06638717651367,11.130599975585938,no information specified,"Mo-Sa 09:00-12:00,15:00-19:00",library,,ab_79348,'Il papiro',,,"{'cuisine': None, 'isVegetarian': None, 'isVegan': None, 'isGlutenFree': None}",,853802056,cp_2212525081
422,422,46.066707611083984,11.12917709350586,no information specified,,restaurant,,ab_63491,'Mamma Mia',,,"{'cuisine': 'kebab;pizza', 'isVegetarian': None, 'isVegan': None, 'isGlutenFree': None}",,853802341,cp_7504788381
423,423,46.06587219238281,11.131909370422363,no information specified,,fitness_centre,,ab_97683,'Centro Relife',,,"{'cuisine': None, 'isVegetarian': None, 'isVegan': None, 'isGlutenFree': None}",,853802490,cp_7003641596
424,424,46.0655403137207,11.12296199798584,no information specified,,cafe,,ab_45118,'Caffè Mazzini',,,"{'cuisine': None, 'isVegetarian': None, 'isVegan': None, 'isGlutenFree': None}",,853802748,cp_6152565514
425,425,46.06771469116211,11.125653266906738,no information specified,,fitness_centre,,ab_95047,'Juta Wellness Center',fitness,,"{'cuisine': None, 'isVegetarian': None, 'isVegan': None, 'isGlutenFree': None}",,858394232,cp_7227813520
426,426,46.09954833984375,11.119163513183594,no information specified,,parking,,ab_64859,,,,"{'cuisine': None, 'isVegetarian': None, 'isVegan': None, 'isGlutenFree': None}",,859541353,cp_1761521889
427,427,46.07296752929688,11.12018871307373,no information specified,,artwork,,ab_98194,'Tracciando il Tempo',,,"{'cuisine': None, 'isVegetarian': None, 'isVegan': None, 'isGlutenFree': None}",,861231425,cp_3876496030
428,428,46.07306671142578,11.103894233703612,no information specified,Mo-Su 07:00-24:00,hotel,,ab_21906,'Garni San Giorgio della scala',,,"{'cuisine': None, 'isVegetarian': None, 'isVegan': None, 'isGlutenFree': None}",,861289107,cp_2041580326
429,429,46.01731872558594,11.157930374145508,no information specified,,viewpoint,,ab_11025,,,,"{'cuisine': None, 'isVegetarian': None, 'isVegan': None, 'isGlutenFree': None}",,863819998,cp_8759251482
430,430,46.053993225097656,11.16917896270752,no information specified,,picnic_site,,ab_37194,,,,"{'cuisine': None, 'isVegetarian': None, 'isVegan': None, 'isGlutenFree': None}",,863821782,cp_6543677857
431,431,46.06736755371094,11.120866775512695,no information specified,,restaurant,,ab_33983,'Scrigno Del Duomo',,,"{'cuisine': None, 'isVegetarian': None, 'isVegan': None, 'isGlutenFree': None}",,865298453,cp_5215039113
432,432,46.06803131103516,11.120702743530272,no information specified,Mo-Sa 07:30-19:30,cafe,,ab_52388,'Urban Coffee Lab',,,"{'cuisine': None, 'isVegetarian': None, 'isVegan': None, 'isGlutenFree': None}",,867377080,cp_2817174766
433,433,46.06776428222656,11.120774269104004,no information specified,,cafe,,ab_21089,'Le Note',,,"{'cuisine': None, 'isVegetarian': None, 'isVegan': None, 'isGlutenFree': None}",,867377406,cp_4006738151
434,434,46.0688591003418,11.120758056640623,no information specified,,cafe,,ab_46217,'Why not',,,"{'cuisine': None, 'isVegetarian': None, 'isVegan': None, 'isGlutenFree': None}",,867377432,cp_9470826565
435,435,46.06159591674805,11.123995780944824,no information specified,,cafe,,ab_31797,'Pasticceria Lott',,,"{'cuisine': None, 'isVegetarian': None, 'isVegan': None, 'isGlutenFree': None}",,867438907,cp_7387157029
436,436,46.06292724609375,11.123586654663086,no information specified,Mo-Su 06:30-21:00,cafe,,ab_9464,'Bar Pasticceria Viennese',,,"{'cuisine': 'italian', 'isVegetarian': None, 'isVegan': None, 'isGlutenFree': None}",,867439110,cp_3413986073
437,437,46.061988830566406,11.123802185058594,no information specified,,cafe,,ab_7772,'Caffè al Corso',,,"{'cuisine': None, 'isVegetarian': None, 'isVegan': None, 'isGlutenFree': None}",,867439156,cp_2245055374
438,438,46.06149673461914,11.124653816223145,no information specified,,restaurant,,ab_31666,'Fujiyama',,,"{'cuisine': 'japanese', 'isVegetarian': None, 'isVegan': None, 'isGlutenFree': None}",,867439213,cp_4811753678
439,439,46.0601692199707,11.113259315490724,no information specified,,artwork,,ab_80971,'Fiore Lunare',,,"{'cuisine': None, 'isVegetarian': None, 'isVegan': None, 'isGlutenFree': None}",,869314139,cp_9345513198
440,440,46.08356857299805,11.17451286315918,guidepost,,information,,ab_71537,,,,"{'cuisine': None, 'isVegetarian': None, 'isVegan': None, 'isGlutenFree': None}",,871837362,cp_5544665532
441,441,46.06806564331055,11.121479034423828,no information specified,24/7,guest_house,,ab_36118,'B&B Al Duomo di Trento',,,"{'cuisine': None, 'isVegetarian': None, 'isVegan': None, 'isGlutenFree': None}",,874276711,cp_3576924672
442,442,46.07260513305664,11.120288848876951,no information specified,,artwork,,ab_96103,,,,"{'cuisine': None, 'isVegetarian': None, 'isVegan': None, 'isGlutenFree': None}",,874501172,cp_9893525246
443,443,46.0654182434082,11.1231689453125,no information specified,,restaurant,,ab_84792,'Ristorante Patelli',,,"{'cuisine': None, 'isVegetarian': None, 'isVegan': None, 'isGlutenFree': None}",,877620656,cp_2524432706
444,444,46.06793975830078,11.119074821472168,no information specified,"Tu-Fr,Su 18:00-01:00; Fr,Sa 18:00-02:00",restaurant,,ab_21310,'Il Simposio',,,"{'cuisine': None, 'isVegetarian': None, 'isVegan': None, 'isGlutenFree': None}",,877620681,cp_7081372134
445,445,46.07328414916992,11.124237060546877,no information specified,,restaurant,,ab_41818,'Bouganville',,,"{'cuisine': 'italian;pizza', 'isVegetarian': None, 'isVegan': None, 'isGlutenFree': None}",,877621024,cp_9110600076
446,446,46.07350540161133,11.120290756225586,no information specified,,parking,,ab_4235,,,,"{'cuisine': None, 'isVegetarian': None, 'isVegan': None, 'isGlutenFree': None}",,880590750,cp_6429498379
447,447,46.07174301147461,11.121200561523438,no information specified,,parking,,ab_78754,,,5,"{'cuisine': None, 'isVegetarian': None, 'isVegan': None, 'isGlutenFree': None}",,880590806,cp_5090297198
448,448,46.06973648071289,11.12221336364746,no information specified,Mo-Sa 11:00-20:30,cafe,,ab_3523,'Caffè Specchi',,,"{'cuisine': None, 'isVegetarian': None, 'isVegan': None, 'isGlutenFree': None}",,880591016,cp_2149310802
449,449,46.06947326660156,11.125216484069824,no information specified,"Mo-Sa 12:00-14:00,19:30-22:00",restaurant,,ab_94807,'Osteria il Cappello',,,"{'cuisine': 'regional', 'isVegetarian': None, 'isVegan': None, 'isGlutenFree': None}",,885669886,cp_5619765550
450,450,46.07047271728516,11.123143196105955,no information specified,"Mo-Su 12:00-14:30, 18:00-24:00",restaurant,,ab_18984,'Antico Pozzo',,,"{'cuisine': 'coffee_shop;grill;italian;italian_pizza;local;seafood;pasta;fish;pizza;chicken;fine_dining;cake;noodles;ice_cream;curry', 'isVegetarian': None, 'isVegan': None, 'isGlutenFree': None}",,885669909,cp_8128217519
451,451,46.0692253112793,11.125534057617188,no information specified,,restaurant,,ab_86350,'Ristorante Pizzeria Anfiteatro',,,"{'cuisine': 'pizza', 'isVegetarian': None, 'isVegan': None, 'isGlutenFree': None}",,885670117,cp_7731935436
452,452,46.06634140014648,11.175214767456056,no information specified,,parking,,ab_89413,,,,"{'cuisine': None, 'isVegetarian': None, 'isVegan': None, 'isGlutenFree': None}",,888057089,cp_6513636516
453,453,46.06764602661133,11.124109268188477,no information specified,,cafe,,ab_39325,'Bottega del Caffè Dersut',,,"{'cuisine': None, 'isVegetarian': None, 'isVegan': None, 'isGlutenFree': None}",,888452672,cp_8334966099
454,454,46.07085037231445,11.123564720153809,no information specified,,cafe,,ab_44431,"""Ilary's Cafe""",,,"{'cuisine': None, 'isVegetarian': None, 'isVegan': None, 'isGlutenFree': None}",,888452700,cp_9037434234
455,455,46.08649063110352,11.119877815246582,no information specified,"Mo-Sa 12:00-14:00,18:30-23:00",restaurant,,ab_92649,'Trittico',,,"{'cuisine': 'pizza;regional', 'isVegetarian': None, 'isVegan': None, 'isGlutenFree': None}",,888671469,cp_3949032119
456,456,46.0863151550293,11.118727684020996,no information specified,,restaurant,,ab_72174,'China Town',,,"{'cuisine': 'chinese;japanese', 'isVegetarian': None, 'isVegan': None, 'isGlutenFree': None}",,888671476,cp_9328800776
457,457,46.06014251708984,11.120509147644045,no information specified,Tu-Sa 07:00-00:00; Su 07:00-20:00,restaurant,,ab_85848,'Happy Hour',,,"{'cuisine': 'regional;fish', 'isVegetarian': None, 'isVegan': None, 'isGlutenFree': None}",,890516959,cp_9624827421
458,458,46.06048202514648,11.121834754943848,no information specified,Su Off,cafe,,ab_97115,'Bar 70',,,"{'cuisine': None, 'isVegetarian': None, 'isVegan': None, 'isGlutenFree': None}",,890516992,cp_2562251471
459,459,46.06038665771485,11.12168788909912,no information specified,,cafe,,ab_17252,'Bar Perini Civico 131',,,"{'cuisine': None, 'isVegetarian': None, 'isVegan': None, 'isGlutenFree': None}",,890517019,cp_8598209416
460,460,46.06550216674805,11.12464714050293,no information specified,"Mo off, Tu-Fr 12:00-14:30,19:00-23:30, Sa-Su 19:00-23:30",restaurant,False,ab_43640,'Uva & Menta',,,"{'cuisine': 'italian;pizza', 'isVegetarian': 'yes', 'isVegan': None, 'isGlutenFree': 'yes'}",,892579043,cp_6750277920
461,461,46.05741882324219,11.12635898590088,no information specified,,playground,,ab_40040,,,,"{'cuisine': None, 'isVegetarian': None, 'isVegan': None, 'isGlutenFree': None}",,893551356,cp_3698103797
462,462,46.07449722290039,11.122780799865724,no information specified,,cafe,,ab_39675,'Eden Caffè',,,"{'cuisine': None, 'isVegetarian': None, 'isVegan': None, 'isGlutenFree': None}",,894044597,cp_7285538169
463,463,46.09419631958008,11.118745803833008,no information specified,,restaurant,,ab_39903,'Tartufo',,,"{'cuisine': 'indian;pizza', 'isVegetarian': None, 'isVegan': None, 'isGlutenFree': None}",,895945447,cp_9795715142
464,464,46.00929641723633,11.043197631835938,guidepost,,information,,ab_51497,,,,"{'cuisine': None, 'isVegetarian': None, 'isVegan': None, 'isGlutenFree': None}",yes,904488797,cp_3152859295
465,465,46.01559829711914,11.038656234741213,map,,information,,ab_18914,,,,"{'cuisine': None, 'isVegetarian': None, 'isVegan': None, 'isGlutenFree': None}",yes,904488852,cp_8137095074
466,466,45.99606323242188,11.044498443603516,guidepost,,information,,ab_36646,'Cima Verde',,,"{'cuisine': None, 'isVegetarian': None, 'isVegan': None, 'isGlutenFree': None}",yes,904488899,cp_3463790444
